$GPRMC,114529.00,A,4000.04128,N,11619.63585,E,0.194,,050616,,,A*7A
$GPVTG,,T,,M,0.194,N,0.359,K,A*20
$GPGGA,114529.00,4000.04128,N,11619.63585,E,1,04,6.98,69.7,M,-8.8,M,,*78
$GPGSA,A,3,09,17,03,23,,,,,,,,,8.88,6.98,5.50*00
$GPGSV,3,1,11,02,27,267,13,03,26,046,27,06,67,304,,09,17,120,26*75
$GPGSV,3,2,11,12,22,317,,17,66,098,20,19,77,001,,22,03,041,12*77
$GPGSV,3,3,11,23,20,090,25,24,00,275,,28,22,176,21*4B
$GPGLL,4000.04128,N,11619.63585,E,114529.00,A,A*6B
$GPRMC,114530.00,A,4000.04137,N,11619.63611,E,0.802,,050616,,,A*74
$GPVTG,,T,,M,0.802,N,1.486,K,A*22
$GPGGA,114530.00,4000.04137,N,11619.63611,E,1,04,6.98,69.7,M,-8.8,M,,*70
$GPGSA,A,3,09,17,03,23,,,,,,,,,8.88,6.98,5.50*00
$GPGSV,3,1,11,02,27,267,11,03,26,046,27,06,67,304,,09,17,120,25*74
$GPGSV,3,2,11,12,22,317,,17,66,098,19,19,77,001,,22,03,041,12*7D
$GPGSV,3,3,11,23,20,090,26,24,00,275,,28,22,176,18*42
$GPGLL,4000.04137,N,11619.63611,E,114530.00,A,A*63
$GPRMC,114531.00,A,4000.04156,N,11619.63714,E,0.830,,050616,,,A*77
$GPVTG,,T,,M,0.830,N,1.537,K,A*28
$GPGGA,114531.00,4000.04156,N,11619.63714,E,1,04,6.98,69.8,M,-8.8,M,,*7D
$GPGSA,A,3,09,17,03,23,,,,,,,,,8.88,6.98,5.50*00
$GPGSV,3,1,11,02,27,267,11,03,26,046,27,06,67,304,,09,17,120,25*74
$GPGSV,3,2,11,12,22,317,,17,66,098,20,19,77,001,,22,03,041,12*77
$GPGSV,3,3,11,23,20,090,25,24,00,275,,28,22,176,15*4C
$GPGLL,4000.04156,N,11619.63714,E,114531.00,A,A*61
$GPRMC,114532.00,A,4000.04157,N,11619.63734,E,0.529,,050616,,,A*72
$GPVTG,,T,,M,0.529,N,0.979,K,A*2A
$GPGGA,114532.00,4000.04157,N,11619.63734,E,1,04,6.98,69.8,M,-8.8,M,,*7D
$GPGSA,A,3,09,17,03,23,,,,,,,,,8.88,6.98,5.50*00
$GPGSV,3,1,11,02,27,267,09,03,26,046,27,06,67,304,,09,17,120,25*7D
$GPGSV,3,2,11,12,22,317,,17,66,098,21,19,77,001,,22,03,041,12*76
$GPGSV,3,3,11,23,20,090,26,24,00,275,,28,22,176,*4B
$GPGLL,4000.04157,N,11619.63734,E,114532.00,A,A*61
$GPRMC,114533.00,A,4000.04157,N,11619.63711,E,0.346,,050616,,,A*7B
$GPVTG,,T,,M,0.346,N,0.641,K,A*21
$GPGGA,114533.00,4000.04157,N,11619.63711,E,1,04,6.98,69.7,M,-8.8,M,,*74
$GPGSA,A,3,09,17,03,23,,,,,,,,,8.88,6.98,5.50*00
$GPGSV,3,1,11,02,27,267,08,03,26,046,27,06,67,304,,09,17,120,26*7F
$GPGSV,3,2,11,12,22,317,,17,66,098,22,19,77,001,,22,03,041,07*71
$GPGSV,3,3,11,23,20,090,27,24,00,275,,28,22,176,*4A
$GPGLL,4000.04157,N,11619.63711,E,114533.00,A,A*67
$GPRMC,114534.00,A,4000.04155,N,11619.63691,E,0.364,,050616,,,A*77
$GPVTG,,T,,M,0.364,N,0.674,K,A*27
$GPGGA,114534.00,4000.04155,N,11619.63691,E,1,04,6.98,69.6,M,-8.8,M,,*79
$GPGSA,A,3,09,17,03,23,,,,,,,,,8.88,6.98,5.50*00
$GPGSV,3,1,11,02,27,267,08,03,26,046,28,06,67,304,,09,17,120,25*73
$GPGSV,3,2,11,12,22,317,,17,66,098,22,19,77,001,,22,03,041,07*71
$GPGSV,3,3,11,23,20,090,27,24,00,275,,28,22,176,*4A
$GPGLL,4000.04155,N,11619.63691,E,114534.00,A,A*6B
$GPRMC,114535.00,A,4000.04162,N,11619.63704,E,0.468,,050616,,,A*74
$GPVTG,,T,,M,0.468,N,0.867,K,A*20
$GPGGA,114535.00,4000.04162,N,11619.63704,E,1,04,6.98,69.6,M,-8.8,M,,*71
$GPGSA,A,3,09,17,03,23,,,,,,,,,8.89,6.98,5.50*01
$GPGSV,3,1,11,02,27,267,08,03,26,046,27,06,67,304,,09,17,120,25*7C
$GPGSV,3,2,11,12,22,317,,17,66,098,21,19,77,001,,22,03,041,07*72
$GPGSV,3,3,11,23,20,090,27,24,00,275,,28,22,176,*4A
$GPGLL,4000.04162,N,11619.63704,E,114535.00,A,A*63
$GPRMC,114536.00,A,4000.04148,N,11619.63644,E,0.283,,050616,,,A*79
$GPVTG,,T,,M,0.283,N,0.524,K,A*29
$GPGGA,114536.00,4000.04148,N,11619.63644,E,1,04,6.98,69.6,M,-8.8,M,,*7F
$GPGSA,A,3,09,17,03,23,,,,,,,,,8.89,6.98,5.50*01
$GPGSV,3,1,11,02,27,267,08,03,26,046,27,06,67,304,,09,17,120,24*7D
$GPGSV,3,2,11,12,22,317,,17,66,098,21,19,77,001,,22,03,041,07*72
$GPGSV,3,3,11,23,20,090,26,24,00,275,,28,22,176,*4B
$GPGLL,4000.04148,N,11619.63644,E,114536.00,A,A*6D
$GPRMC,114537.00,A,4000.04142,N,11619.63617,E,0.927,,050616,,,A*71
$GPVTG,,T,,M,0.927,N,1.718,K,A*20
$GPGGA,114537.00,4000.04142,N,11619.63617,E,1,04,6.98,69.7,M,-8.8,M,,*73
$GPGSA,A,3,09,17,03,23,,,,,,,,,8.89,6.98,5.50*01
$GPGSV,3,1,11,02,27,267,09,03,26,046,27,06,67,304,,09,17,120,23*7B
$GPGSV,3,2,11,12,22,317,,17,66,098,20,19,77,001,,22,03,041,07*73
$GPGSV,3,3,11,23,20,090,26,24,00,275,,28,22,176,*4B
$GPGLL,4000.04142,N,11619.63617,E,114537.00,A,A*60
$GPRMC,114538.00,A,4000.04144,N,11619.63599,E,1.076,,050616,,,A*71
$GPVTG,,T,,M,1.076,N,1.992,K,A*20
$GPGGA,114538.00,4000.04144,N,11619.63599,E,1,04,6.98,69.7,M,-8.8,M,,*7F
$GPGSA,A,3,09,17,03,23,,,,,,,,,8.89,6.98,5.50*01
$GPGSV,3,1,11,02,27,267,,03,26,046,27,06,67,304,,09,17,120,24*75
$GPGSV,3,2,11,12,22,317,,17,66,098,21,19,77,001,,22,03,041,08*7D
$GPGSV,3,3,11,23,20,090,27,24,00,275,,28,22,176,*4A
$GPGLL,4000.04144,N,11619.63599,E,114538.00,A,A*6C
$GPRMC,114539.00,A,4000.04147,N,11619.63586,E,0.633,,050616,,,A*7B
$GPVTG,,T,,M,0.633,N,1.172,K,A*20
$GPGGA,114539.00,4000.04147,N,11619.63586,E,1,04,6.98,69.8,M,-8.8,M,,*7C
$GPGSA,A,3,09,17,03,23,,,,,,,,,8.89,6.98,5.50*01
$GPGSV,3,1,11,02,27,267,04,03,26,046,27,06,67,304,,09,17,120,23*76
$GPGSV,3,2,11,12,22,317,,17,66,098,21,19,77,001,,22,03,041,09*7C
$GPGSV,3,3,11,23,20,090,27,24,00,275,,28,22,176,*4A
$GPGLL,4000.04147,N,11619.63586,E,114539.00,A,A*60
$GPRMC,114540.00,A,4000.04157,N,11619.63589,E,0.509,,050616,,,A*71
$GPVTG,,T,,M,0.509,N,0.942,K,A*20
$GPGGA,114540.00,4000.04157,N,11619.63589,E,1,04,6.98,69.9,M,-8.8,M,,*7D
$GPGSA,A,3,09,17,03,23,,,,,,,,,8.89,6.98,5.50*01
$GPGSV,3,1,11,02,27,267,07,03,26,046,27,06,67,304,,09,17,120,23*75
$GPGSV,3,2,11,12,22,317,,17,66,098,21,19,77,001,,22,03,041,09*7C
$GPGSV,3,3,11,23,20,090,27,24,00,275,,28,22,176,*4A
$GPGLL,4000.04157,N,11619.63589,E,114540.00,A,A*60
$GPRMC,114541.00,A,4000.04153,N,11619.63587,E,1.041,,050616,,,A*72
$GPVTG,,T,,M,1.041,N,1.929,K,A*24
$GPGGA,114541.00,4000.04153,N,11619.63587,E,1,03,3.41,69.9,M,-8.8,M,,*70
$GPGSA,A,2,17,03,23,,,,,,,,,,3.55,3.41,1.00*03
$GPGSV,3,1,11,02,27,267,12,03,26,046,28,06,67,304,,09,17,120,*7F
$GPGSV,3,2,11,12,22,317,,17,66,098,20,19,77,001,,22,03,041,09*7D
$GPGSV,3,3,11,23,20,090,27,24,00,275,,28,22,176,*4A
$GPGLL,4000.04153,N,11619.63587,E,114541.00,A,A*6B
$GPRMC,114542.00,A,4000.04126,N,11619.63495,E,1.040,,050616,,,A*70
$GPVTG,,T,,M,1.040,N,1.926,K,A*2A
$GPGGA,114542.00,4000.04126,N,11619.63495,E,1,03,3.41,69.9,M,-8.8,M,,*73
$GPGSA,A,2,17,03,23,,,,,,,,,,3.55,3.41,1.00*03
$GPGSV,3,1,11,02,27,267,15,03,26,046,29,06,67,304,,09,17,120,25*7E
$GPGSV,3,2,11,12,22,317,,17,66,098,20,19,77,001,,22,03,041,10*75
$GPGSV,3,3,11,23,20,090,27,24,00,275,,28,22,176,*4A
$GPGLL,4000.04126,N,11619.63495,E,114542.00,A,A*68
$GPRMC,114543.00,A,4000.04109,N,11619.63483,E,0.607,,050616,,,A*7F
$GPVTG,,T,,M,0.607,N,1.125,K,A*25
$GPGGA,114543.00,4000.04109,N,11619.63483,E,1,04,6.98,69.7,M,-8.8,M,,*70
$GPGSA,A,3,09,17,03,23,,,,,,,,,8.89,6.98,5.50*01
$GPGSV,3,1,11,02,27,267,15,03,26,046,29,06,67,304,,09,17,120,24*7F
$GPGSV,3,2,11,12,22,317,,17,66,098,20,19,77,001,,22,03,041,10*75
$GPGSV,3,3,11,23,20,090,28,24,00,275,,28,22,176,*45
$GPGLL,4000.04109,N,11619.63483,E,114543.00,A,A*63
$GPRMC,114544.00,A,4000.04127,N,11619.63538,E,0.484,,050616,,,A*7C
$GPVTG,,T,,M,0.484,N,0.896,K,A*2C
$GPGGA,114544.00,4000.04127,N,11619.63538,E,1,03,3.41,69.8,M,-8.8,M,,*73
$GPGSA,A,2,17,03,23,,,,,,,,,,3.55,3.41,1.00*03
$GPGSV,3,1,11,02,27,267,15,03,26,046,28,06,67,304,,09,17,120,*78
$GPGSV,3,2,11,12,22,317,21,17,66,098,21,19,77,001,22,22,03,041,*76
$GPGSV,3,3,11,23,20,090,28,24,00,275,,28,22,176,*45
$GPGLL,4000.04127,N,11619.63538,E,114544.00,A,A*69
$GPRMC,114545.00,A,4000.04136,N,11619.63573,E,0.486,,050616,,,A*70
$GPVTG,,T,,M,0.486,N,0.900,K,A*20
$GPGGA,114545.00,4000.04136,N,11619.63573,E,1,03,3.41,69.8,M,-8.8,M,,*7D
$GPGSA,A,2,17,03,23,,,,,,,,,,3.55,3.41,1.00*03
$GPGSV,3,1,11,02,27,267,14,03,26,046,28,06,67,304,,09,17,120,*79
$GPGSV,3,2,11,12,22,317,18,17,66,098,21,19,77,001,19,22,03,041,*74
$GPGSV,3,3,11,23,20,090,27,24,00,275,,28,22,176,*4A
$GPGLL,4000.04136,N,11619.63573,E,114545.00,A,A*67
$GPRMC,114546.00,A,4000.04125,N,11619.63526,E,0.919,,050616,,,A*7A
$GPVTG,,T,,M,0.919,N,1.701,K,A*25
$GPGGA,114546.00,4000.04125,N,11619.63526,E,1,03,3.41,69.9,M,-8.8,M,,*7D
$GPGSA,A,2,17,03,23,,,,,,,,,,3.56,3.41,1.00*00
$GPGSV,3,1,11,02,27,267,13,03,26,046,28,06,67,304,,09,17,120,24*78
$GPGSV,3,2,11,12,22,317,16,17,66,098,21,19,77,001,17,22,03,041,21*77
$GPGSV,3,3,11,23,20,090,27,24,00,275,,28,22,176,*4A
$GPGLL,4000.04125,N,11619.63526,E,114546.00,A,A*66
$GPRMC,114547.00,A,4000.04138,N,11619.63576,E,0.483,,050616,,,A*7C
$GPVTG,,T,,M,0.483,N,0.895,K,A*28
$GPGGA,114547.00,4000.04138,N,11619.63576,E,1,03,3.41,69.9,M,-8.8,M,,*75
$GPGSA,A,2,17,03,23,,,,,,,,,,3.56,3.41,1.00*00
$GPGSV,3,1,11,02,27,267,14,03,26,046,29,06,67,304,,09,17,120,26*7C
$GPGSV,3,2,11,12,22,317,14,17,66,098,21,19,77,001,14,22,03,041,21*76
$GPGSV,3,3,11,23,20,090,27,24,00,275,,28,22,176,*4A
$GPGLL,4000.04138,N,11619.63576,E,114547.00,A,A*6E
$GPRMC,114548.00,A,4000.04123,N,11619.63521,E,0.254,,050616,,,A*77
$GPVTG,,T,,M,0.254,N,0.471,K,A*22
$GPGGA,114548.00,4000.04123,N,11619.63521,E,1,03,3.41,69.9,M,-8.8,M,,*72
$GPGSA,A,2,17,03,23,,,,,,,,,,3.56,3.41,1.00*00
$GPGSV,3,1,11,02,27,267,14,03,26,046,29,06,67,304,,09,17,120,25*7F
$GPGSV,3,2,11,12,22,317,14,17,66,098,21,19,77,001,,22,03,041,20*72
$GPGSV,3,3,11,23,20,090,26,24,00,275,,28,22,176,*4B
$GPGLL,4000.04123,N,11619.63521,E,114548.00,A,A*69
$GPRMC,114549.00,A,4000.04119,N,11619.63506,E,0.101,,050616,,,A*79
$GPVTG,,T,,M,0.101,N,0.187,K,A*2D
$GPGGA,114549.00,4000.04119,N,11619.63506,E,1,03,3.41,69.9,M,-8.8,M,,*7F
$GPGSA,A,2,17,03,23,,,,,,,,,,3.56,3.41,1.00*00
$GPGSV,3,1,11,02,27,267,15,03,26,046,29,06,67,304,,09,17,120,25*7E
$GPGSV,3,2,11,12,22,317,14,17,66,098,21,19,77,001,,22,03,041,17*76
$GPGSV,3,3,11,23,20,090,26,24,00,275,,28,22,176,*4B
$GPGLL,4000.04119,N,11619.63506,E,114549.00,A,A*64
$GPRMC,114550.00,A,4000.04096,N,11619.63430,E,0.819,,050616,,,A*73
$GPVTG,,T,,M,0.819,N,1.517,K,A*21
$GPGGA,114550.00,4000.04096,N,11619.63430,E,1,03,3.41,69.9,M,-8.8,M,,*75
$GPGSA,A,2,17,03,23,,,,,,,,,,3.56,3.41,1.00*00
$GPGSV,3,1,11,02,27,267,15,03,26,046,29,06,67,304,,09,17,120,26*7D
$GPGSV,3,2,11,12,22,317,,17,66,098,22,19,77,001,22,22,03,041,*76
$GPGSV,3,3,11,23,20,090,26,24,00,275,,28,22,176,*4B
$GPGLL,4000.04096,N,11619.63430,E,114550.00,A,A*6E
$GPRMC,114551.00,A,4000.04088,N,11619.63418,E,0.767,,050616,,,A*71
$GPVTG,,T,,M,0.767,N,1.420,K,A*22
$GPGGA,114551.00,4000.04088,N,11619.63418,E,1,04,3.41,70.0,M,-8.8,M,,*77
$GPGSA,A,2,09,17,03,23,,,,,,,,,3.56,3.41,1.00*09
$GPGSV,3,1,11,02,27,267,15,03,26,046,29,06,67,304,,09,17,120,25*7E
$GPGSV,3,2,11,12,22,317,,17,66,098,22,19,77,001,22,22,03,041,*76
$GPGSV,3,3,11,23,20,090,27,24,00,275,,28,22,176,*4A
$GPGLL,4000.04088,N,11619.63418,E,114551.00,A,A*6A
$GPRMC,114552.00,A,4000.04090,N,11619.63427,E,0.269,,050616,,,A*7C
$GPVTG,,T,,M,0.269,N,0.498,K,A*2B
$GPGGA,114552.00,4000.04090,N,11619.63427,E,1,03,3.41,70.0,M,-8.8,M,,*76
$GPGSA,A,2,17,03,23,,,,,,,,,,3.56,3.41,1.00*00
$GPGSV,3,1,11,02,27,267,16,03,26,046,29,06,67,304,,09,17,120,*7A
$GPGSV,3,2,11,12,22,317,21,17,66,098,22,19,77,001,22,22,03,041,22*75
$GPGSV,3,3,11,23,20,090,27,24,00,275,,28,22,176,*4A
$GPGLL,4000.04090,N,11619.63427,E,114552.00,A,A*6C
$GPRMC,114553.00,A,4000.04077,N,11619.63384,E,0.281,,050616,,,A*7C
$GPVTG,,T,,M,0.281,N,0.521,K,A*2E
$GPGGA,114553.00,4000.04077,N,11619.63384,E,1,03,3.41,69.9,M,-8.8,M,,*71
$GPGSA,A,2,17,03,23,,,,,,,,,,3.56,3.41,1.00*00
$GPGSV,3,1,11,02,27,267,17,03,26,046,29,06,67,305,,09,17,120,16*7D
$GPGSV,3,2,11,12,22,317,19,17,66,098,22,19,77,001,21,22,03,041,22*7D
$GPGSV,3,3,11,23,20,090,27,24,00,275,,28,22,176,*4A
$GPGLL,4000.04077,N,11619.63384,E,114553.00,A,A*6A
$GPRMC,114554.00,A,4000.04071,N,11619.63384,E,0.732,,050616,,,A*70
$GPVTG,,T,,M,0.732,N,1.356,K,A*24
$GPGGA,114554.00,4000.04071,N,11619.63384,E,1,03,3.41,69.9,M,-8.8,M,,*70
$GPGSA,A,2,17,03,23,,,,,,,,,,3.56,3.41,1.00*00
$GPGSV,3,1,11,02,27,267,16,03,26,046,29,06,67,305,,09,17,120,23*7A
$GPGSV,3,2,11,12,22,317,,17,66,098,22,19,77,001,21,22,03,041,22*75
$GPGSV,3,3,11,23,20,090,26,24,00,275,,28,22,176,*4B
$GPGLL,4000.04071,N,11619.63384,E,114554.00,A,A*6B
$GPRMC,114555.00,A,4000.04071,N,11619.63386,E,0.772,,050616,,,A*77
$GPVTG,,T,,M,0.772,N,1.429,K,A*2F
$GPGGA,114555.00,4000.04071,N,11619.63386,E,1,03,3.41,69.8,M,-8.8,M,,*72
$GPGSA,A,2,17,03,23,,,,,,,,,,3.56,3.41,1.00*00
$GPGSV,3,1,11,02,27,267,,03,26,046,29,06,67,305,,09,17,120,23*7D
$GPGSV,3,2,11,12,22,317,,17,66,098,22,19,77,001,21,22,03,041,22*75
$GPGSV,3,3,11,23,20,090,26,24,00,275,,28,22,176,*4B
$GPGLL,4000.04071,N,11619.63386,E,114555.00,A,A*68
$GPRMC,114556.00,A,4000.04052,N,11619.63352,E,0.305,,050616,,,A*78
$GPVTG,,T,,M,0.305,N,0.565,K,A*23
$GPGGA,114556.00,4000.04052,N,11619.63352,E,1,03,3.41,69.7,M,-8.8,M,,*76
$GPGSA,A,2,17,03,23,,,,,,,,,,3.56,3.41,1.00*00
$GPGSV,3,1,11,02,27,267,,03,26,046,29,06,67,305,,09,18,120,23*72
$GPGSV,3,2,11,12,22,317,,17,66,098,22,19,77,001,21,22,03,041,22*75
$GPGSV,3,3,11,23,20,090,26,24,00,275,,28,22,176,*4B
$GPGLL,4000.04052,N,11619.63352,E,114556.00,A,A*63
$GPRMC,114557.00,A,4000.04052,N,11619.63370,E,0.524,,050616,,,A*7C
$GPVTG,,T,,M,0.524,N,0.970,K,A*2E
$GPGGA,114557.00,4000.04052,N,11619.63370,E,1,03,3.41,69.8,M,-8.8,M,,*78
$GPGSA,A,2,17,03,23,,,,,,,,,,3.56,3.41,1.00*00
$GPGSV,3,1,11,02,27,267,,03,26,046,28,06,67,305,,09,18,120,23*73
$GPGSV,3,2,11,12,22,317,,17,66,098,22,19,77,001,19,22,03,041,22*7E
$GPGSV,3,3,11,23,20,090,26,24,00,275,,28,22,176,*4B
$GPGLL,4000.04052,N,11619.63370,E,114557.00,A,A*62
$GPRMC,114558.00,A,4000.04156,N,11619.63529,E,1.186,,050616,,,A*71
$GPVTG,,T,,M,1.186,N,2.197,K,A*20
$GPGGA,114558.00,4000.04156,N,11619.63529,E,1,04,6.98,70.7,M,-8.8,M,,*79
$GPGSA,A,3,09,17,03,23,,,,,,,,,8.89,6.98,5.50*01
$GPGSV,3,1,11,02,27,267,,03,26,046,27,06,67,305,,09,18,120,22*7D
$GPGSV,3,2,11,12,22,317,,17,66,098,21,19,77,001,17,22,03,041,*73
$GPGSV,3,3,11,23,20,090,26,24,00,275,,28,22,176,*4B
$GPGLL,4000.04156,N,11619.63529,E,114558.00,A,A*62
$GPRMC,114559.00,A,4000.04144,N,11619.63536,E,1.016,,050616,,,A*75
$GPVTG,,T,,M,1.016,N,1.881,K,A*25
$GPGGA,114559.00,4000.04144,N,11619.63536,E,1,04,6.98,71.0,M,-8.8,M,,*73
$GPGSA,A,3,09,17,03,23,,,,,,,,,8.89,6.98,5.50*01
$GPGSV,3,1,11,02,27,267,,03,26,046,28,06,67,305,,09,18,120,22*72
$GPGSV,3,2,11,12,22,317,,17,66,098,21,19,77,001,13,22,03,041,23*76
$GPGSV,3,3,11,23,20,090,25,24,00,275,,28,22,176,*48
$GPGLL,4000.04144,N,11619.63536,E,114559.00,A,A*6E
$GPRMC,114600.00,A,4000.04146,N,11619.63568,E,0.817,,050616,,,A*7B
$GPVTG,,T,,M,0.817,N,1.513,K,A*2B
$GPGGA,114600.00,4000.04146,N,11619.63568,E,1,04,6.98,70.7,M,-8.8,M,,*73
$GPGSA,A,3,09,17,03,23,,,,,,,,,8.89,6.98,5.50*01
$GPGSV,3,1,11,02,27,267,,03,26,046,29,06,67,305,,09,18,120,22*73
$GPGSV,3,2,11,12,22,317,,17,66,098,22,19,77,001,12,22,03,041,*75
$GPGSV,3,3,11,23,20,090,25,24,00,275,,28,22,176,*48
$GPGLL,4000.04146,N,11619.63568,E,114600.00,A,A*68
$GPRMC,114601.00,A,4000.04149,N,11619.63569,E,0.501,,050616,,,A*7E
$GPVTG,,T,,M,0.501,N,0.929,K,A*25
$GPGGA,114601.00,4000.04149,N,11619.63569,E,1,03,3.41,70.9,M,-8.8,M,,*74
$GPGSA,A,2,17,03,23,,,,,,,,,,3.56,3.41,1.00*00
$GPGSV,3,1,11,02,27,267,,03,26,046,29,06,67,305,,09,18,120,*73
$GPGSV,3,2,11,12,22,317,,17,66,098,22,19,77,001,12,22,03,041,*75
$GPGSV,3,3,11,23,20,090,26,24,00,275,,28,22,176,*4B
$GPGLL,4000.04149,N,11619.63569,E,114601.00,A,A*67
$GPRMC,114602.00,V,,,,,,,050616,,,N*79
$GPVTG,,,,,,,,,N*30
$GPGGA,114602.00,,,,,0,00,99.99,,,,,,*66
$GPGSA,A,1,,,,,,,,,,,,,99.99,99.99,99.99*30
$GPGSV,3,1,11,02,27,267,,03,26,046,30,06,67,305,,09,18,120,*7B
$GPGSV,3,2,11,12,22,317,,17,66,098,22,19,77,001,,22,03,041,*76
$GPGSV,3,3,11,23,20,090,26,24,00,275,,28,22,176,*4B
$GPGLL,,,,,114602.00,V,N*4A
$GPRMC,114603.00,V,,,,,,,050616,,,N*78
$GPVTG,,,,,,,,,N*30
$GPGGA,114603.00,,,,,0,00,99.99,,,,,,*67
$GPGSA,A,1,,,,,,,,,,,,,99.99,99.99,99.99*30
$GPGSV,3,1,11,02,27,267,,03,26,046,29,06,67,305,,09,18,120,*73
$GPGSV,3,2,11,12,22,317,,17,66,098,22,19,77,001,23,22,03,041,*77
$GPGSV,3,3,11,23,20,090,25,24,00,275,,28,22,176,*48
$GPGLL,,,,,114603.00,V,N*4B
$GPRMC,114604.00,V,,,,,,,050616,,,N*7F
$GPVTG,,,,,,,,,N*30
$GPGGA,114604.00,,,,,0,00,99.99,,,,,,*60
$GPGSA,A,1,,,,,,,,,,,,,99.99,99.99,99.99*30
$GPGSV,3,1,11,02,27,267,,03,26,046,29,06,67,305,,09,18,120,*73
$GPGSV,3,2,11,12,22,317,,17,66,098,22,19,77,001,,22,03,041,*76
$GPGSV,3,3,11,23,20,090,26,24,00,275,,28,22,176,*4B
$GPGLL,,,,,114604.00,V,N*4C
$GPRMC,114605.00,V,,,,,,,050616,,,N*7E
$GPVTG,,,,,,,,,N*30
$GPGGA,114605.00,,,,,0,00,99.99,,,,,,*61
$GPGSA,A,1,,,,,,,,,,,,,99.99,99.99,99.99*30
$GPGSV,3,1,11,02,27,267,,03,26,046,29,06,67,305,,09,18,120,*73
$GPGSV,3,2,11,12,22,317,,17,66,098,22,19,77,001,21,22,03,041,*75
$GPGSV,3,3,11,23,20,090,26,24,00,275,,28,22,176,*4B
$GPGLL,,,,,114605.00,V,N*4D
$GPRMC,114606.00,V,,,,,,,050616,,,N*7D
$GPVTG,,,,,,,,,N*30
$GPGGA,114606.00,,,,,0,00,99.99,,,,,,*62
$GPGSA,A,1,,,,,,,,,,,,,99.99,99.99,99.99*30
$GPGSV,3,1,11,02,27,267,,03,26,046,29,06,67,305,,09,18,120,*73
$GPGSV,3,2,11,12,22,317,,17,66,098,22,19,77,002,18,22,03,041,*7C
$GPGSV,3,3,11,23,20,090,26,24,00,275,,28,22,176,*4B
$GPGLL,,,,,114606.00,V,N*4E
$GPRMC,114607.00,A,4000.04148,N,11619.63542,E,0.775,,050616,,,A*71
$GPVTG,,T,,M,0.775,N,1.436,K,A*26
$GPGGA,114607.00,4000.04148,N,11619.63542,E,1,03,3.42,70.4,M,-8.8,M,,*74
$GPGSA,A,2,17,03,23,,,,,,,,,,3.56,3.42,1.00*03
$GPGSV,3,1,11,02,27,267,,03,26,046,29,06,67,305,,09,18,120,*73
$GPGSV,3,2,11,12,22,317,,17,66,098,21,19,77,002,16,22,03,041,*71
$GPGSV,3,3,11,23,20,090,26,24,00,275,,28,22,176,*4B
$GPGLL,4000.04148,N,11619.63542,E,114607.00,A,A*69
$GPRMC,114608.00,A,4000.04144,N,11619.63526,E,1.262,,050616,,,A*72
$GPVTG,,T,,M,1.262,N,2.336,K,A*20
$GPGGA,114608.00,4000.04144,N,11619.63526,E,1,03,3.42,70.2,M,-8.8,M,,*73
$GPGSA,A,2,17,03,23,,,,,,,,,,3.56,3.42,1.00*03
$GPGSV,3,1,11,02,27,267,,03,26,046,29,06,67,305,,09,18,120,*73
$GPGSV,3,2,11,12,22,317,,17,66,098,22,19,77,002,11,22,03,041,21*76
$GPGSV,3,3,11,23,20,090,26,24,00,275,,28,22,176,*4B
$GPGLL,4000.04144,N,11619.63526,E,114608.00,A,A*68
$GPRMC,114609.00,A,4000.04137,N,11619.63510,E,1.215,,050616,,,A*72
$GPVTG,,T,,M,1.215,N,2.250,K,A*21
$GPGGA,114609.00,4000.04137,N,11619.63510,E,1,03,3.42,70.0,M,-8.8,M,,*71
$GPGSA,A,2,17,03,23,,,,,,,,,,3.56,3.42,1.00*03
$GPGSV,3,1,11,02,27,267,,03,26,046,29,06,67,305,,09,18,120,*73
$GPGSV,3,2,11,12,22,317,,17,66,098,21,19,77,002,11,22,03,041,21*75
$GPGSV,3,3,11,23,20,090,26,24,00,275,,28,22,176,*4B
$GPGLL,4000.04137,N,11619.63510,E,114609.00,A,A*68
$GPRMC,114610.00,A,4000.04117,N,11619.63471,E,0.774,,050616,,,A*7D
$GPVTG,,T,,M,0.774,N,1.434,K,A*25
$GPGGA,114610.00,4000.04117,N,11619.63471,E,1,03,3.42,69.7,M,-8.8,M,,*72
$GPGSA,A,2,17,03,23,,,,,,,,,,3.56,3.42,1.00*03
$GPGSV,3,1,11,02,27,267,,03,26,046,29,06,67,305,,09,18,120,*73
$GPGSV,3,2,11,12,22,317,,17,66,098,21,19,77,002,11,22,03,041,21*75
$GPGSV,3,3,11,23,20,090,26,24,00,275,,28,22,176,17*4D
$GPGLL,4000.04117,N,11619.63471,E,114610.00,A,A*64
$GPRMC,114611.00,A,4000.04132,N,11619.63520,E,0.671,,050616,,,A*7A
$GPVTG,,T,,M,0.671,N,1.242,K,A*26
$GPGGA,114611.00,4000.04132,N,11619.63520,E,1,03,3.42,69.6,M,-8.8,M,,*70
$GPGSA,A,2,17,03,23,,,,,,,,,,3.56,3.42,1.00*03
$GPGSV,3,1,11,02,27,267,,03,26,046,28,06,67,305,,09,18,120,20*70
$GPGSV,3,2,11,12,22,317,,17,66,098,21,19,77,002,12,22,03,041,21*76
$GPGSV,3,3,11,23,20,090,26,24,00,275,,28,22,176,*4B
$GPGLL,4000.04132,N,11619.63520,E,114611.00,A,A*67
$GPRMC,114612.00,A,4000.04161,N,11619.63587,E,0.628,,050616,,,A*7E
$GPVTG,,T,,M,0.628,N,1.164,K,A*2D
$GPGGA,114612.00,4000.04161,N,11619.63587,E,1,03,3.42,69.4,M,-8.8,M,,*7A
$GPGSA,A,2,17,03,23,,,,,,,,,,3.56,3.42,1.00*03
$GPGSV,3,1,11,02,27,267,,03,26,046,27,06,67,305,,09,18,120,20*7F
$GPGSV,3,2,11,12,22,317,,17,66,098,20,19,77,002,11,22,03,041,20*75
$GPGSV,3,3,11,23,20,090,25,24,00,275,,28,22,176,*48
$GPGLL,4000.04161,N,11619.63587,E,114612.00,A,A*6F
$GPRMC,114613.00,A,4000.04178,N,11619.63559,E,0.477,,050616,,,A*7C
$GPVTG,,T,,M,0.477,N,0.883,K,A*24
$GPGGA,114613.00,4000.04178,N,11619.63559,E,1,03,3.42,69.3,M,-8.8,M,,*77
$GPGSA,A,2,17,03,23,,,,,,,,,,3.56,3.42,1.00*03
$GPGSV,3,1,11,02,27,267,,03,26,046,26,06,67,305,,09,18,120,17*7A
$GPGSV,3,2,11,12,22,317,,17,66,098,19,19,77,002,10,22,03,041,18*75
$GPGSV,3,3,11,23,20,090,24,24,00,275,,28,22,176,*49
$GPGLL,4000.04178,N,11619.63559,E,114613.00,A,A*65
$GPRMC,114614.00,V,,,,,,,050616,,,N*7E
$GPVTG,,,,,,,,,N*30
$GPGGA,114614.00,,,,,0,00,99.99,,,,,,*61
$GPGSA,A,1,,,,,,,,,,,,,99.99,99.99,99.99*30
$GPGSV,3,1,11,02,27,267,,03,26,046,26,06,67,305,,09,18,120,14*79
$GPGSV,3,2,11,12,22,317,,17,66,098,19,19,77,002,,22,03,041,13*7F
$GPGSV,3,3,11,23,20,090,23,24,00,275,,28,22,176,*4E
$GPGLL,,,,,114614.00,V,N*4D
$GPRMC,114615.00,A,4000.04249,N,11619.63604,E,0.476,,050616,,,A*71
$GPVTG,,T,,M,0.476,N,0.881,K,A*27
$GPGGA,114615.00,4000.04249,N,11619.63604,E,1,04,6.98,68.2,M,-8.8,M,,*7E
$GPGSA,A,3,09,17,03,23,,,,,,,,,8.89,6.98,5.50*01
$GPGSV,3,1,11,02,27,267,,03,26,046,26,06,67,305,,09,18,120,17*7A
$GPGSV,3,2,11,12,22,317,,17,66,098,19,19,77,002,,22,03,041,13*7F
$GPGSV,3,3,11,23,20,090,24,24,00,275,,28,21,176,*4A
$GPGLL,4000.04249,N,11619.63604,E,114615.00,A,A*69
$GPRMC,114616.00,V,,,,,,,050616,,,N*7C
$GPVTG,,,,,,,,,N*30
$GPGGA,114616.00,,,,,0,00,99.99,,,,,,*63
$GPGSA,A,1,,,,,,,,,,,,,99.99,99.99,99.99*30
$GPGSV,3,1,11,02,27,267,,03,26,046,27,06,67,305,,09,18,120,17*7B
$GPGSV,3,2,11,12,22,317,,17,66,098,19,19,77,002,,22,03,041,10*7C
$GPGSV,3,3,11,23,20,090,24,24,00,275,,28,21,176,*4A
$GPGLL,,,,,114616.00,V,N*4F
$GPRMC,114617.00,V,,,,,,,050616,,,N*7D
$GPVTG,,,,,,,,,N*30
$GPGGA,114617.00,,,,,0,00,99.99,,,,,,*62
$GPGSA,A,1,,,,,,,,,,,,,99.99,99.99,99.99*30
$GPGSV,3,1,11,02,27,267,15,03,26,046,26,06,67,305,,09,18,120,*78
$GPGSV,3,2,11,12,22,317,,17,66,098,19,19,77,002,,22,03,041,*7D
$GPGSV,3,3,11,23,20,090,22,24,00,275,,28,21,176,*4C
$GPGLL,,,,,114617.00,V,N*4E
$GPRMC,114618.00,V,,,,,,,050616,,,N*72
$GPVTG,,,,,,,,,N*30
$GPGGA,114618.00,,,,,0,00,99.99,,,,,,*6D
$GPGSA,A,1,,,,,,,,,,,,,99.99,99.99,99.99*30
$GPGSV,3,1,11,02,27,267,15,03,26,046,27,06,67,305,,09,18,120,17*7F
$GPGSV,3,2,11,12,22,317,,17,66,098,,19,77,002,,22,03,041,*75
$GPGSV,3,3,11,23,20,090,23,24,00,275,,28,21,176,*4D
$GPGLL,,,,,114618.00,V,N*41
$GPRMC,114619.00,V,,,,,,,050616,,,N*73
$GPVTG,,,,,,,,,N*30
$GPGGA,114619.00,,,,,0,00,99.99,,,,,,*6C
$GPGSA,A,1,,,,,,,,,,,,,99.99,99.99,99.99*30
$GPGSV,3,1,11,02,27,267,14,03,26,046,27,06,67,305,,09,18,120,17*7E
$GPGSV,3,2,11,12,22,317,,17,66,098,20,19,77,002,,22,03,041,*77
$GPGSV,3,3,11,23,20,090,23,24,00,275,,28,21,176,*4D
$GPGLL,,,,,114619.00,V,N*40
$GPRMC,114620.00,V,,,,,,,050616,,,N*79
$GPVTG,,,,,,,,,N*30
$GPGGA,114620.00,,,,,0,00,99.99,,,,,,*66
$GPGSA,A,1,,,,,,,,,,,,,99.99,99.99,99.99*30
$GPGSV,3,1,11,02,27,267,14,03,26,046,26,06,67,305,,09,18,120,16*7E
$GPGSV,3,2,11,12,22,317,,17,66,098,19,19,77,002,,22,03,041,*7D
$GPGSV,3,3,11,23,20,090,23,24,00,275,,28,21,176,*4D
$GPGLL,,,,,114620.00,V,N*4A
$GPRMC,114621.00,A,4000.04297,N,11619.63520,E,0.952,,050616,,,A*7B
$GPVTG,,T,,M,0.952,N,1.763,K,A*2E
$GPGGA,114621.00,4000.04297,N,11619.63520,E,1,04,6.98,66.8,M,-8.8,M,,*7B
$GPGSA,A,3,09,17,03,23,,,,,,,,,8.89,6.98,5.50*01
$GPGSV,3,1,11,02,27,267,15,03,26,046,26,06,67,305,,09,18,120,18*71
$GPGSV,3,2,11,12,22,317,,17,66,098,19,19,77,002,,22,03,041,*7D
$GPGSV,3,3,11,23,20,090,23,24,00,275,,28,21,176,*4D
$GPGLL,4000.04297,N,11619.63520,E,114621.00,A,A*68
$GPRMC,114622.00,A,4000.04368,N,11619.63601,E,1.162,,050616,,,A*73
$GPVTG,,T,,M,1.162,N,2.152,K,A*23
$GPGGA,114622.00,4000.04368,N,11619.63601,E,1,03,3.42,66.2,M,-8.8,M,,*76
$GPGSA,A,2,17,03,23,,,,,,,,,,3.56,3.42,1.00*03
$GPGSV,3,1,11,02,27,267,15,03,26,046,26,06,67,305,,09,18,120,21*7B
$GPGSV,3,2,11,12,22,317,,17,66,098,19,19,77,002,,22,03,041,*7D
$GPGSV,3,3,11,23,20,090,23,24,00,275,,28,21,176,*4D
$GPGLL,4000.04368,N,11619.63601,E,114622.00,A,A*6A
$GPRMC,114623.00,A,4000.04395,N,11619.63618,E,1.024,,050616,,,A*7B
$GPVTG,,T,,M,1.024,N,1.897,K,A*23
$GPGGA,114623.00,4000.04395,N,11619.63618,E,1,03,3.42,65.9,M,-8.8,M,,*75
$GPGSA,A,2,17,03,23,,,,,,,,,,3.56,3.42,1.00*03
$GPGSV,3,1,11,02,27,267,15,03,26,046,26,06,67,305,,09,18,120,26*7C
$GPGSV,3,2,11,12,22,317,,17,66,098,19,19,77,002,,22,03,041,*7D
$GPGSV,3,3,11,23,20,090,23,24,00,275,,28,21,176,*4D
$GPGLL,4000.04395,N,11619.63618,E,114623.00,A,A*61
$GPRMC,114624.00,A,4000.04383,N,11619.63679,E,0.976,,050616,,,A*73
$GPVTG,,T,,M,0.976,N,1.807,K,A*25
$GPGGA,114624.00,4000.04383,N,11619.63679,E,1,03,3.42,65.9,M,-8.8,M,,*72
$GPGSA,A,2,17,03,23,,,,,,,,,,3.56,3.42,1.00*03
$GPGSV,3,1,11,02,27,267,14,03,26,046,27,06,67,305,,09,18,120,23*79
$GPGSV,3,2,11,12,22,317,,17,66,098,20,19,77,002,,22,03,041,*77
$GPGSV,3,3,11,23,20,090,23,24,00,275,,28,21,176,*4D
$GPGLL,4000.04383,N,11619.63679,E,114624.00,A,A*66
$GPRMC,114625.00,A,4000.04399,N,11619.63703,E,1.101,,050616,,,A*7C
$GPVTG,,T,,M,1.101,N,2.039,K,A*2A
$GPGGA,114625.00,4000.04399,N,11619.63703,E,1,03,3.42,66.3,M,-8.8,M,,*7D
$GPGSA,A,2,17,03,23,,,,,,,,,,3.56,3.42,1.00*03
$GPGSV,3,1,11,02,27,267,14,03,26,046,27,06,67,305,,09,18,120,22*78
$GPGSV,3,2,11,12,22,317,,17,66,098,20,19,77,002,,22,03,041,*77
$GPGSV,3,3,11,23,20,090,24,24,00,275,,28,21,176,*4A
$GPGLL,4000.04399,N,11619.63703,E,114625.00,A,A*60
$GPRMC,114626.00,A,4000.04420,N,11619.63767,E,0.859,,050616,,,A*7D
$GPVTG,,T,,M,0.859,N,1.590,K,A*2A
$GPGGA,114626.00,4000.04420,N,11619.63767,E,1,03,3.42,66.6,M,-8.8,M,,*7C
$GPGSA,A,2,17,03,23,,,,,,,,,,3.56,3.42,1.00*03
$GPGSV,3,1,11,02,27,267,17,03,26,046,27,06,67,305,,09,18,120,*7B
$GPGSV,3,2,11,12,22,317,20,17,66,098,21,19,77,002,,22,03,041,*74
$GPGSV,3,3,11,23,20,090,24,24,00,275,,28,21,176,*4A
$GPGLL,4000.04420,N,11619.63767,E,114626.00,A,A*64
$GPRMC,114627.00,A,4000.04432,N,11619.63810,E,0.413,,050616,,,A*72
$GPVTG,,T,,M,0.413,N,0.765,K,A*21
$GPGGA,114627.00,4000.04432,N,11619.63810,E,1,03,3.42,66.7,M,-8.8,M,,*70
$GPGSA,A,2,17,03,23,,,,,,,,,,3.56,3.42,1.00*03
$GPGSV,3,1,11,02,27,267,17,03,26,046,27,06,67,305,,09,18,120,24*7D
$GPGSV,3,2,11,12,22,317,18,17,66,098,21,19,77,002,,22,03,041,*7F
$GPGSV,3,3,11,23,20,090,25,24,00,275,,28,21,176,*4B
$GPGLL,4000.04432,N,11619.63810,E,114627.00,A,A*69
$GPRMC,114628.00,A,4000.04437,N,11619.63872,E,0.252,,050616,,,A*7F
$GPVTG,,T,,M,0.252,N,0.466,K,A*22
$GPGGA,114628.00,4000.04437,N,11619.63872,E,1,03,3.42,66.9,M,-8.8,M,,*70
$GPGSA,A,2,17,03,23,,,,,,,,,,3.56,3.42,1.00*03
$GPGSV,3,1,12,02,27,267,15,03,26,046,26,04,,,28,06,67,305,*46
$GPGSV,3,2,12,09,18,120,22,12,22,317,14,17,66,098,20,19,77,002,*74
$GPGSV,3,3,12,22,03,041,,23,20,090,25,24,00,275,,28,21,176,*7E
$GPGLL,4000.04437,N,11619.63872,E,114628.00,A,A*67
$GPRMC,114629.00,A,4000.04383,N,11619.63829,E,0.188,,050616,,,A*7C
$GPVTG,,T,,M,0.188,N,0.348,K,A*2D
$GPGGA,114629.00,4000.04383,N,11619.63829,E,1,04,6.98,66.9,M,-8.8,M,,*72
$GPGSA,A,3,09,17,03,23,,,,,,,,,8.89,6.98,5.50*01
$GPGSV,3,1,12,02,27,267,14,03,26,046,25,04,,,26,06,67,305,*4A
$GPGSV,3,2,12,09,18,120,21,12,22,317,11,17,66,098,20,19,77,002,*72
$GPGSV,3,3,12,22,03,041,,23,20,090,24,24,00,275,,28,21,176,*7F
$GPGLL,4000.04383,N,11619.63829,E,114629.00,A,A*60
$GPRMC,114630.00,A,4000.04342,N,11619.63796,E,0.449,,050616,,,A*7A
$GPVTG,,T,,M,0.449,N,0.832,K,A*23
$GPGGA,114630.00,4000.04342,N,11619.63796,E,1,04,6.98,66.8,M,-8.8,M,,*7D
$GPGSA,A,3,09,17,03,23,,,,,,,,,8.89,6.98,5.50*01
$GPGSV,3,1,12,02,27,267,14,03,26,046,26,04,,,25,06,67,305,*4A
$GPGSV,3,2,12,09,18,120,22,12,22,317,11,17,66,098,20,19,77,002,*71
$GPGSV,3,3,12,22,03,041,,23,20,090,25,24,00,275,,28,21,176,*7E
$GPGLL,4000.04342,N,11619.63796,E,114630.00,A,A*6E
$GPRMC,114631.00,A,4000.04404,N,11619.63923,E,0.154,,050616,,,A*77
$GPVTG,,T,,M,0.154,N,0.285,K,A*2C
$GPGGA,114631.00,4000.04404,N,11619.63923,E,1,04,6.98,67.2,M,-8.8,M,,*72
$GPGSA,A,3,09,17,03,23,,,,,,,,,8.89,6.98,5.50*01
$GPGSV,3,1,12,02,27,267,,03,26,046,27,04,,,24,06,67,305,*4F
$GPGSV,3,2,12,09,18,120,22,12,22,317,13,17,66,098,21,19,77,002,21*71
$GPGSV,3,3,12,22,03,041,24,23,20,090,24,24,00,275,22,28,21,176,*79
$GPGLL,4000.04404,N,11619.63923,E,114631.00,A,A*6A
$GPRMC,114632.00,A,4000.04336,N,11619.63745,E,0.187,,050616,,,A*72
$GPVTG,,T,,M,0.187,N,0.346,K,A*2C
$GPGGA,114632.00,4000.04336,N,11619.63745,E,1,04,6.98,66.6,M,-8.8,M,,*7C
$GPGSA,A,3,09,17,03,23,,,,,,,,,8.89,6.98,5.50*01
$GPGSV,3,1,12,02,27,267,,03,26,046,27,04,,,23,06,67,305,*48
$GPGSV,3,2,12,09,18,120,21,12,22,317,11,17,66,098,21,19,77,002,21*70
$GPGSV,3,3,12,22,03,041,,23,20,090,24,24,00,275,,28,21,176,*7F
$GPGLL,4000.04336,N,11619.63745,E,114632.00,A,A*61
$GPRMC,114633.00,A,4000.04326,N,11619.63763,E,0.127,,050616,,,A*7C
$GPVTG,,T,,M,0.127,N,0.234,K,A*22
$GPGGA,114633.00,4000.04326,N,11619.63763,E,1,04,6.98,66.7,M,-8.8,M,,*79
$GPGSA,A,3,09,17,03,23,,,,,,,,,8.89,6.98,5.50*01
$GPGSV,3,1,12,02,28,268,,03,26,046,27,04,,,22,06,67,305,*49
$GPGSV,3,2,12,09,18,120,23,12,22,317,11,17,66,098,22,19,77,002,21*71
$GPGSV,3,3,12,22,03,041,,23,20,090,25,24,00,275,,28,21,176,*7E
$GPGLL,4000.04326,N,11619.63763,E,114633.00,A,A*65
$GPRMC,114634.00,A,4000.04315,N,11619.63720,E,0.185,,050616,,,A*74
$GPVTG,,T,,M,0.185,N,0.342,K,A*2A
$GPGGA,114634.00,4000.04315,N,11619.63720,E,1,04,6.98,66.5,M,-8.8,M,,*7B
$GPGSA,A,3,09,17,03,23,,,,,,,,,8.89,6.98,5.50*01
$GPGSV,3,1,12,02,28,268,,03,26,046,27,04,,,22,06,67,305,*49
$GPGSV,3,2,12,09,18,120,24,12,22,317,12,17,66,098,21,19,77,002,21*76
$GPGSV,3,3,12,22,03,041,22,23,20,090,26,24,00,275,,28,21,176,*7D
$GPGLL,4000.04315,N,11619.63720,E,114634.00,A,A*65
$GPRMC,114635.00,A,4000.04309,N,11619.63719,E,0.044,,050616,,,A*7E
$GPVTG,,T,,M,0.044,N,0.081,K,A*2A
$GPGGA,114635.00,4000.04309,N,11619.63719,E,1,04,6.98,66.5,M,-8.8,M,,*7D
$GPGSA,A,3,09,17,03,23,,,,,,,,,8.89,6.98,5.50*01
$GPGSV,3,1,12,02,28,268,,03,26,046,27,04,,,21,06,67,305,*4A
$GPGSV,3,2,12,09,18,120,24,12,22,317,,17,66,098,20,19,77,002,20*75
$GPGSV,3,3,12,22,03,041,21,23,20,090,24,24,00,275,,28,21,176,*7C
$GPGLL,4000.04309,N,11619.63719,E,114635.00,A,A*63
$GPRMC,114636.00,A,4000.04272,N,11619.63602,E,0.410,,050616,,,A*7E
$GPVTG,,T,,M,0.410,N,0.760,K,A*27
$GPGGA,114636.00,4000.04272,N,11619.63602,E,1,04,6.98,66.1,M,-8.8,M,,*7C
$GPGSA,A,3,09,17,03,23,,,,,,,,,8.89,6.98,5.50*01
$GPGSV,3,1,12,02,28,268,,03,26,046,27,04,,,21,06,68,306,*46
$GPGSV,3,2,12,09,18,120,24,12,22,317,,17,66,098,20,19,77,002,21*74
$GPGSV,3,3,12,22,03,041,21,23,20,090,24,24,00,275,,28,21,176,*7C
$GPGLL,4000.04272,N,11619.63602,E,114636.00,A,A*66
$GPRMC,114637.00,A,4000.04279,N,11619.63623,E,0.586,,050616,,,A*79
$GPVTG,,T,,M,0.586,N,1.086,K,A*27
$GPGGA,114637.00,4000.04279,N,11619.63623,E,1,04,6.98,66.2,M,-8.8,M,,*76
$GPGSA,A,3,09,17,03,23,,,,,,,,,8.89,6.98,5.50*01
$GPGSV,3,1,12,02,28,268,,03,26,046,27,04,,,21,06,68,306,*46
$GPGSV,3,2,12,09,18,120,23,12,22,317,,17,66,098,20,19,77,002,20*72
$GPGSV,3,3,12,22,03,041,21,23,20,090,22,24,00,275,,28,21,176,*7A
$GPGLL,4000.04279,N,11619.63623,E,114637.00,A,A*6F
$GPRMC,114638.00,A,4000.04315,N,11619.63661,E,0.126,,050616,,,A*75
$GPVTG,,T,,M,0.126,N,0.234,K,A*23
$GPGGA,114638.00,4000.04315,N,11619.63661,E,1,04,6.98,66.3,M,-8.8,M,,*75
$GPGSA,A,3,09,17,03,23,,,,,,,,,8.89,6.98,5.50*01
$GPGSV,3,1,12,02,28,268,,03,26,046,28,04,,,21,06,68,306,*49
$GPGSV,3,2,12,09,18,120,23,12,22,317,,17,66,098,20,19,77,002,18*79
$GPGSV,3,3,12,22,03,041,21,23,20,090,22,24,00,275,,28,21,176,*7A
$GPGLL,4000.04315,N,11619.63661,E,114638.00,A,A*6D
$GPRMC,114639.00,A,4000.04354,N,11619.63655,E,0.920,,050616,,,A*78
$GPVTG,,T,,M,0.920,N,1.704,K,A*2A
$GPGGA,114639.00,4000.04354,N,11619.63655,E,1,04,6.98,66.4,M,-8.8,M,,*71
$GPGSA,A,3,09,17,03,23,,,,,,,,,8.89,6.98,5.50*01
$GPGSV,3,1,12,02,28,268,,03,26,046,27,04,,,21,06,68,306,*46
$GPGSV,3,2,12,09,18,120,22,12,22,317,,17,66,098,20,19,77,002,15*75
$GPGSV,3,3,12,22,03,041,21,23,20,090,21,24,00,275,,28,21,176,*79
$GPGLL,4000.04354,N,11619.63655,E,114639.00,A,A*6E
$GPRMC,114640.00,A,4000.04377,N,11619.63677,E,0.952,,050616,,,A*72
$GPVTG,,T,,M,0.952,N,1.762,K,A*2F
$GPGGA,114640.00,4000.04377,N,11619.63677,E,1,04,6.98,66.5,M,-8.8,M,,*7F
$GPGSA,A,3,09,17,03,23,,,,,,,,,8.89,6.98,5.50*01
$GPGSV,3,1,12,02,28,268,,03,26,046,27,04,,,18,06,68,306,*4C
$GPGSV,3,2,12,09,18,120,23,12,22,317,,17,66,098,21,19,77,002,12*72
$GPGSV,3,3,12,22,03,041,19,23,20,090,21,24,00,275,,28,21,176,*72
$GPGLL,4000.04377,N,11619.63677,E,114640.00,A,A*61
$GPRMC,114641.00,A,4000.04391,N,11619.63762,E,0.539,,050616,,,A*7F
$GPVTG,,T,,M,0.539,N,0.998,K,A*24
$GPGGA,114641.00,4000.04391,N,11619.63762,E,1,04,6.98,66.7,M,-8.8,M,,*71
$GPGSA,A,3,09,17,03,23,,,,,,,,,8.89,6.98,5.50*01
$GPGSV,3,1,12,02,28,268,,03,26,046,27,04,,,15,06,68,306,*41
$GPGSV,3,2,12,09,18,120,23,12,22,317,,17,66,098,21,19,77,002,10*70
$GPGSV,3,3,12,22,03,041,17,23,20,090,23,24,00,275,,28,21,176,*7E
$GPGLL,4000.04391,N,11619.63762,E,114641.00,A,A*6D
$GPRMC,114642.00,A,4000.04367,N,11619.63699,E,0.689,,050616,,,A*78
$GPVTG,,T,,M,0.689,N,1.276,K,A*26
$GPGGA,114642.00,4000.04367,N,11619.63699,E,1,04,6.98,66.7,M,-8.8,M,,*7E
$GPGSA,A,3,09,17,03,23,,,,,,,,,8.89,6.98,5.50*01
$GPGSV,3,1,11,02,28,268,,03,26,046,27,06,68,306,,09,18,120,23*70
$GPGSV,3,2,11,12,22,317,,17,66,098,21,19,77,002,09,22,03,041,12*7C
$GPGSV,3,3,11,23,20,090,23,24,00,275,,28,21,176,*4D
$GPGLL,4000.04367,N,11619.63699,E,114642.00,A,A*62
$GPRMC,114643.00,A,4000.04356,N,11619.63651,E,1.230,,050616,,,A*78
$GPVTG,,T,,M,1.230,N,2.279,K,A*2D
$GPGGA,114643.00,4000.04356,N,11619.63651,E,1,04,6.98,66.8,M,-8.8,M,,*76
$GPGSA,A,3,09,17,03,23,,,,,,,,,8.89,6.98,5.50*01
$GPGSV,3,1,11,02,28,268,,03,26,046,27,06,68,306,,09,18,120,23*70
$GPGSV,3,2,11,12,22,317,,17,66,098,21,19,77,002,,22,03,041,*76
$GPGSV,3,3,11,23,20,090,24,24,00,275,,28,21,176,*4A
$GPGLL,4000.04356,N,11619.63651,E,114643.00,A,A*65
$GPRMC,114644.00,A,4000.04328,N,11619.63555,E,1.681,,050616,,,A*7F
$GPVTG,,T,,M,1.681,N,3.114,K,A*2A
$GPGGA,114644.00,4000.04328,N,11619.63555,E,1,04,6.98,66.7,M,-8.8,M,,*70
$GPGSA,A,3,09,17,03,23,,,,,,,,,8.89,6.98,5.50*01
$GPGSV,3,1,11,02,28,268,,03,26,046,27,06,68,306,,09,18,120,23*70
$GPGSV,3,2,11,12,22,317,,17,66,098,21,19,77,002,,22,03,041,*76
$GPGSV,3,3,11,23,20,090,23,24,00,275,,28,21,176,*4D
$GPGLL,4000.04328,N,11619.63555,E,114644.00,A,A*6C
$GPRMC,114645.00,A,4000.04323,N,11619.63547,E,1.478,,050616,,,A*72
$GPVTG,,T,,M,1.478,N,2.737,K,A*28
$GPGGA,114645.00,4000.04323,N,11619.63547,E,1,04,6.98,66.8,M,-8.8,M,,*76
$GPGSA,A,3,09,17,03,23,,,,,,,,,8.89,6.98,5.50*01
$GPGSV,3,1,11,02,28,268,,03,26,046,27,06,68,306,,09,18,120,23*70
$GPGSV,3,2,11,12,22,317,,17,66,098,20,19,77,002,,22,03,041,*77
$GPGSV,3,3,11,23,20,090,23,24,00,275,,28,21,176,*4D
$GPGLL,4000.04323,N,11619.63547,E,114645.00,A,A*65
$GPRMC,114646.00,A,4000.04286,N,11619.63593,E,1.135,,050616,,,A*7A
$GPVTG,,T,,M,1.135,N,2.101,K,A*27
$GPGGA,114646.00,4000.04286,N,11619.63593,E,1,04,6.98,66.8,M,-8.8,M,,*72
$GPGSA,A,3,09,17,03,23,,,,,,,,,8.89,6.98,5.50*01
$GPGSV,3,1,11,02,28,268,,03,26,046,27,06,68,306,,09,18,120,22*71
$GPGSV,3,2,11,12,22,317,,17,66,098,20,19,77,002,,22,03,041,05*72
$GPGSV,3,3,11,23,20,090,22,24,00,275,,28,21,176,*4C
$GPGLL,4000.04286,N,11619.63593,E,114646.00,A,A*61
$GPRMC,114647.00,A,4000.04273,N,11619.63613,E,1.314,,050616,,,A*7B
$GPVTG,,T,,M,1.314,N,2.433,K,A*22
$GPGGA,114647.00,4000.04273,N,11619.63613,E,1,04,6.98,66.9,M,-8.8,M,,*73
$GPGSA,A,3,09,17,03,23,,,,,,,,,8.89,6.98,5.50*01
$GPGSV,3,1,11,02,28,268,,03,26,046,27,06,68,306,,09,18,120,22*71
$GPGSV,3,2,11,12,22,317,,17,65,099,21,19,77,002,,22,03,041,07*73
$GPGSV,3,3,11,23,20,090,23,24,00,275,,28,21,176,*4D
$GPGLL,4000.04273,N,11619.63613,E,114647.00,A,A*61
$GPRMC,114648.00,A,4000.04297,N,11619.63687,E,1.509,,050616,,,A*79
$GPVTG,,T,,M,1.509,N,2.795,K,A*27
$GPGGA,114648.00,4000.04297,N,11619.63687,E,1,04,6.98,67.1,M,-8.8,M,,*72
$GPGSA,A,3,09,17,03,23,,,,,,,,,8.89,6.98,5.50*01
$GPGSV,3,1,11,02,28,268,,03,26,046,26,06,68,306,,09,18,120,22*70
$GPGSV,3,2,11,12,22,317,,17,65,099,21,19,77,002,,22,03,041,08*7C
$GPGSV,3,3,11,23,20,090,24,24,00,275,,28,21,176,*4A
$GPGLL,4000.04297,N,11619.63687,E,114648.00,A,A*69
$GPRMC,114649.00,A,4000.04310,N,11619.63684,E,1.735,,050616,,,A*78
$GPVTG,,T,,M,1.735,N,3.214,K,A*27
$GPGGA,114649.00,4000.04310,N,11619.63684,E,1,04,6.98,67.2,M,-8.8,M,,*7D
$GPGSA,A,3,09,17,03,23,,,,,,,,,8.89,6.98,5.50*01
$GPGSV,3,1,11,02,28,268,,03,26,046,26,06,68,306,,09,18,120,22*70
$GPGSV,3,2,11,12,22,317,,17,65,099,21,19,77,004,,22,03,041,08*7A
$GPGSV,3,3,11,23,20,090,24,24,00,275,,28,21,176,*4A
$GPGLL,4000.04310,N,11619.63684,E,114649.00,A,A*65
$GPRMC,114650.00,A,4000.04287,N,11619.63575,E,1.747,,050616,,,A*77
$GPVTG,,T,,M,1.747,N,3.236,K,A*22
$GPGGA,114650.00,4000.04287,N,11619.63575,E,1,04,6.98,67.1,M,-8.8,M,,*74
$GPGSA,A,3,09,17,03,23,,,,,,,,,8.89,6.98,5.50*01
$GPGSV,3,1,11,02,28,268,,03,26,046,26,06,68,306,,09,18,120,22*70
$GPGSV,3,2,11,12,22,317,,17,65,099,20,19,77,004,,22,03,041,08*7B
$GPGSV,3,3,11,23,20,090,23,24,00,275,,28,21,176,*4D
$GPGLL,4000.04287,N,11619.63575,E,114650.00,A,A*6F
$GPRMC,114651.00,A,4000.04292,N,11619.63586,E,1.813,,050616,,,A*70
$GPVTG,,T,,M,1.813,N,3.358,K,A*25
$GPGGA,114651.00,4000.04292,N,11619.63586,E,1,04,6.98,67.1,M,-8.8,M,,*7D
$GPGSA,A,3,09,17,03,23,,,,,,,,,8.89,6.98,5.50*01
$GPGSV,3,1,11,02,28,268,,03,26,046,26,06,68,306,,09,18,120,23*71
$GPGSV,3,2,11,12,22,317,,17,65,099,21,19,77,004,,22,03,041,07*75
$GPGSV,3,3,11,23,20,090,24,24,00,275,,28,21,176,*4A
$GPGLL,4000.04292,N,11619.63586,E,114651.00,A,A*66
$GPRMC,114652.00,A,4000.04325,N,11619.63727,E,2.029,,050616,,,A*75
$GPVTG,,T,,M,2.029,N,3.757,K,A*2C
$GPGGA,114652.00,4000.04325,N,11619.63727,E,1,04,6.98,67.4,M,-8.8,M,,*7F
$GPGSA,A,3,09,17,03,23,,,,,,,,,8.89,6.98,5.50*01
$GPGSV,3,1,11,02,28,268,,03,26,046,26,06,68,306,,09,18,120,23*71
$GPGSV,3,2,11,12,22,317,,17,65,099,21,19,77,004,,22,02,041,07*74
$GPGSV,3,3,11,23,20,090,24,24,00,275,,28,21,176,*4A
$GPGLL,4000.04325,N,11619.63727,E,114652.00,A,A*61
$GPRMC,114653.00,A,4000.04270,N,11619.63701,E,2.529,,050616,,,A*74
$GPVTG,,T,,M,2.529,N,4.684,K,A*21
$GPGGA,114653.00,4000.04270,N,11619.63701,E,1,04,6.98,67.4,M,-8.8,M,,*7B
$GPGSA,A,3,09,17,03,23,,,,,,,,,8.89,6.98,5.50*01
$GPGSV,3,1,11,02,28,268,,03,26,046,26,06,68,306,,09,18,120,22*70
$GPGSV,3,2,11,12,22,317,,17,65,099,21,19,77,004,,22,02,041,*73
$GPGSV,3,3,11,23,20,089,24,24,00,275,,28,21,176,*42
$GPGLL,4000.04270,N,11619.63701,E,114653.00,A,A*65
$GPRMC,114654.00,A,4000.04301,N,11619.63776,E,1.924,,050616,,,A*76
$GPVTG,,T,,M,1.924,N,3.564,K,A*29
$GPGGA,114654.00,4000.04301,N,11619.63776,E,1,04,6.98,67.4,M,-8.8,M,,*7B
$GPGSA,A,3,09,17,03,23,,,,,,,,,8.89,6.98,5.50*01
$GPGSV,3,1,11,02,28,268,,03,26,046,27,06,68,306,,09,18,120,22*71
$GPGSV,3,2,11,12,22,317,,17,65,099,21,19,77,004,,22,02,041,*73
$GPGSV,3,3,11,23,20,089,24,24,00,275,,28,21,176,*42
$GPGLL,4000.04301,N,11619.63776,E,114654.00,A,A*65
$GPRMC,114655.00,A,4000.04283,N,11619.63735,E,1.838,,050616,,,A*77
$GPVTG,,T,,M,1.838,N,3.404,K,A*22
$GPGGA,114655.00,4000.04283,N,11619.63735,E,1,04,6.98,67.3,M,-8.8,M,,*71
$GPGSA,A,3,09,17,03,23,,,,,,,,,8.89,6.98,5.50*01
$GPGSV,3,1,11,02,28,268,,03,26,046,26,06,68,306,,09,18,120,22*70
$GPGSV,3,2,11,12,22,317,,17,65,099,21,19,77,004,,22,02,041,*73
$GPGSV,3,3,11,23,20,089,23,24,00,275,,28,21,176,*45
$GPGLL,4000.04283,N,11619.63735,E,114655.00,A,A*68
$GPRMC,114656.00,A,4000.04259,N,11619.63732,E,1.704,,050616,,,A*74
$GPVTG,,T,,M,1.704,N,3.155,K,A*23
$GPGGA,114656.00,4000.04259,N,11619.63732,E,1,04,6.99,67.2,M,-8.8,M,,*72
$GPGSA,A,3,09,17,03,23,,,,,,,,,8.89,6.99,5.50*00
$GPGSV,3,1,11,02,28,268,,03,26,046,26,06,68,306,,09,18,120,22*70
$GPGSV,3,2,11,12,22,317,,17,65,099,22,19,77,004,,22,02,041,*70
$GPGSV,3,3,11,23,20,089,23,24,00,275,,28,21,176,*45
$GPGLL,4000.04259,N,11619.63732,E,114656.00,A,A*6B
$GPRMC,114657.00,A,4000.04248,N,11619.63728,E,1.673,,050616,,,A*7F
$GPVTG,,T,,M,1.673,N,3.098,K,A*22
$GPGGA,114657.00,4000.04248,N,11619.63728,E,1,04,6.99,67.2,M,-8.8,M,,*78
$GPGSA,A,3,09,17,03,23,,,,,,,,,8.89,6.99,5.50*00
$GPGSV,3,1,11,02,28,268,,03,26,046,26,06,68,306,,09,18,120,22*70
$GPGSV,3,2,11,12,22,317,,17,65,099,22,19,77,004,,22,02,041,*70
$GPGSV,3,3,11,23,20,089,23,24,00,275,,28,21,176,*45
$GPGLL,4000.04248,N,11619.63728,E,114657.00,A,A*61
$GPRMC,114658.00,A,4000.04228,N,11619.63693,E,1.558,,050616,,,A*7D
$GPVTG,,T,,M,1.558,N,2.886,K,A*2E
$GPGGA,114658.00,4000.04228,N,11619.63693,E,1,04,6.99,67.1,M,-8.8,M,,*73
$GPGSA,A,3,09,17,03,23,,,,,,,,,8.89,6.99,5.50*00
$GPGSV,3,1,11,02,28,268,,03,26,046,26,06,68,306,,09,18,120,21*73
$GPGSV,3,2,11,12,22,317,,17,65,099,22,19,77,004,,22,02,041,*70
$GPGSV,3,3,11,23,20,089,23,24,00,275,,28,21,176,*45
$GPGLL,4000.04228,N,11619.63693,E,114658.00,A,A*69
$GPRMC,114659.00,A,4000.04234,N,11619.63664,E,1.395,,050616,,,A*7E
$GPVTG,,T,,M,1.395,N,2.583,K,A*21
$GPGGA,114659.00,4000.04234,N,11619.63664,E,1,04,6.99,67.1,M,-8.8,M,,*77
$GPGSA,A,3,09,17,03,23,,,,,,,,,8.89,6.99,5.50*00
$GPGSV,3,1,11,02,28,268,,03,26,046,27,06,68,306,,09,18,120,21*72
$GPGSV,3,2,11,12,22,317,,17,65,099,22,19,77,004,,22,02,041,*70
$GPGSV,3,3,11,23,20,089,23,24,00,275,,28,21,176,*45
$GPGLL,4000.04234,N,11619.63664,E,114659.00,A,A*6D
$GPRMC,114700.00,A,4000.04198,N,11619.63613,E,1.397,,050616,,,A*74
$GPVTG,,T,,M,1.397,N,2.588,K,A*28
$GPGGA,114700.00,4000.04198,N,11619.63613,E,1,04,6.99,67.0,M,-8.8,M,,*7E
$GPGSA,A,3,09,17,03,23,,,,,,,,,8.89,6.99,5.50*00
$GPGSV,3,1,11,02,28,268,,03,26,046,27,06,68,306,,09,18,120,20*73
$GPGSV,3,2,11,12,22,317,,17,65,099,22,19,77,004,,22,02,041,*70
$GPGSV,3,3,11,23,20,089,23,24,00,275,,28,21,176,*45
$GPGLL,4000.04198,N,11619.63613,E,114700.00,A,A*65
$GPRMC,114701.00,A,4000.04176,N,11619.63509,E,1.891,,050616,,,A*70
$GPVTG,,T,,M,1.891,N,3.503,K,A*27
$GPGGA,114701.00,4000.04176,N,11619.63509,E,1,04,6.99,67.0,M,-8.8,M,,*77
$GPGSA,A,3,09,17,03,23,,,,,,,,,8.89,6.99,5.50*00
$GPGSV,3,1,11,02,28,268,,03,26,046,27,06,68,306,,09,18,120,21*72
$GPGSV,3,2,11,12,22,317,,17,65,099,22,19,77,004,,22,02,041,*70
$GPGSV,3,3,11,23,20,089,23,24,00,275,,28,21,176,*45
$GPGLL,4000.04176,N,11619.63509,E,114701.00,A,A*6C
$GPRMC,114702.00,A,4000.04158,N,11619.63486,E,2.009,,050616,,,A*73
$GPVTG,,T,,M,2.009,N,3.720,K,A*2E
$GPGGA,114702.00,4000.04158,N,11619.63486,E,1,04,6.99,66.9,M,-8.8,M,,*76
$GPGSA,A,3,09,17,03,23,,,,,,,,,8.89,6.99,5.50*00
$GPGSV,3,1,11,02,28,268,,03,26,046,27,06,68,306,,09,18,120,20*73
$GPGSV,3,2,11,12,22,317,,17,65,099,22,19,77,004,,22,02,041,*70
$GPGSV,3,3,11,23,20,089,23,24,00,275,,28,21,176,*45
$GPGLL,4000.04158,N,11619.63486,E,114702.00,A,A*65
$GPRMC,114703.00,A,4000.04159,N,11619.63555,E,1.513,,050616,,,A*71
$GPVTG,,T,,M,1.513,N,2.801,K,A*2E
$GPGGA,114703.00,4000.04159,N,11619.63555,E,1,04,6.99,66.9,M,-8.8,M,,*79
$GPGSA,A,3,09,17,03,23,,,,,,,,,8.89,6.99,5.50*00
$GPGSV,3,1,11,02,28,268,,03,26,046,27,06,68,306,,09,18,120,20*73
$GPGSV,3,2,11,12,22,317,,17,65,099,22,19,77,004,,22,02,041,*70
$GPGSV,3,3,11,23,20,089,23,24,00,275,,28,21,176,*45
$GPGLL,4000.04159,N,11619.63555,E,114703.00,A,A*6A
$GPRMC,114704.00,A,4000.04164,N,11619.63634,E,0.972,,050616,,,A*76
$GPVTG,,T,,M,0.972,N,1.800,K,A*26
$GPGGA,114704.00,4000.04164,N,11619.63634,E,1,04,6.99,66.9,M,-8.8,M,,*74
$GPGSA,A,3,09,17,03,23,,,,,,,,,8.89,6.99,5.50*00
$GPGSV,3,1,11,02,28,268,,03,26,046,27,06,68,306,,09,18,120,20*73
$GPGSV,3,2,11,12,22,317,,17,65,099,23,19,77,004,,22,02,041,12*72
$GPGSV,3,3,11,23,20,089,23,24,00,275,,28,21,176,*45
$GPGLL,4000.04164,N,11619.63634,E,114704.00,A,A*67
$GPRMC,114705.00,A,4000.04187,N,11619.63742,E,1.130,,050616,,,A*75
$GPVTG,,T,,M,1.130,N,2.093,K,A*28
$GPGGA,114705.00,4000.04187,N,11619.63742,E,1,04,6.99,66.9,M,-8.8,M,,*78
$GPGSA,A,3,09,17,03,23,,,,,,,,,8.89,6.99,5.50*00
$GPGSV,3,1,11,02,28,268,,03,26,046,27,06,68,306,,09,18,120,21*72
$GPGSV,3,2,11,12,22,317,,17,65,099,23,19,77,004,24,22,02,041,13*75
$GPGSV,3,3,11,23,20,089,22,24,00,275,,28,21,176,*44
$GPGLL,4000.04187,N,11619.63742,E,114705.00,A,A*6B
$GPRMC,114706.00,A,4000.04185,N,11619.63704,E,1.254,,050616,,,A*77
$GPVTG,,T,,M,1.254,N,2.323,K,A*21
$GPGGA,114706.00,4000.04185,N,11619.63704,E,1,04,6.99,66.9,M,-8.8,M,,*7B
$GPGSA,A,3,09,17,03,23,,,,,,,,,8.89,6.99,5.50*00
$GPGSV,3,1,11,02,28,268,20,03,26,046,27,06,68,306,,09,18,120,21*70
$GPGSV,3,2,11,12,22,317,,17,65,099,23,19,77,004,21,22,02,041,13*70
$GPGSV,3,3,11,23,20,089,22,24,00,275,,28,21,176,*44
$GPGLL,4000.04185,N,11619.63704,E,114706.00,A,A*68
$GPRMC,114707.00,A,4000.04207,N,11619.63693,E,1.021,,050616,,,A*70
$GPVTG,,T,,M,1.021,N,1.890,K,A*21
$GPGGA,114707.00,4000.04207,N,11619.63693,E,1,04,6.99,66.9,M,-8.8,M,,*7C
$GPGSA,A,3,09,17,03,23,,,,,,,,,8.89,6.99,5.50*00
$GPGSV,3,1,11,02,28,268,20,03,26,046,27,06,68,306,,09,18,120,21*70
$GPGSV,3,2,11,12,22,317,,17,65,099,22,19,77,004,,22,02,041,*70
$GPGSV,3,3,11,23,20,089,23,24,00,275,,28,21,176,*45
$GPGLL,4000.04207,N,11619.63693,E,114707.00,A,A*6F
$GPRMC,114708.00,A,4000.04182,N,11619.63643,E,0.754,,050616,,,A*78
$GPVTG,,T,,M,0.754,N,1.396,K,A*28
$GPGGA,114708.00,4000.04182,N,11619.63643,E,1,04,6.99,66.9,M,-8.8,M,,*70
$GPGSA,A,3,09,17,03,23,,,,,,,,,8.89,6.99,5.50*00
$GPGSV,3,1,11,02,28,268,21,03,26,046,26,06,68,306,,09,18,120,21*70
$GPGSV,3,2,11,12,22,317,,17,65,099,22,19,77,004,,22,02,041,*70
$GPGSV,3,3,11,23,20,089,23,24,00,275,,28,21,176,*45
$GPGLL,4000.04182,N,11619.63643,E,114708.00,A,A*63
$GPRMC,114709.00,A,4000.04160,N,11619.63672,E,0.745,,050616,,,A*77
$GPVTG,,T,,M,0.745,N,1.380,K,A*2F
$GPGGA,114709.00,4000.04160,N,11619.63672,E,1,04,6.99,66.8,M,-8.8,M,,*7E
$GPGSA,A,3,09,17,03,23,,,,,,,,,8.89,6.99,5.50*00
$GPGSV,3,1,11,02,28,268,21,03,26,046,26,06,68,306,,09,18,120,20*71
$GPGSV,3,2,11,12,22,317,,17,65,099,23,19,77,004,,22,02,041,*71
$GPGSV,3,3,11,23,20,089,22,24,00,275,,28,21,176,*44
$GPGLL,4000.04160,N,11619.63672,E,114709.00,A,A*6C
$GPRMC,114710.00,A,4000.04141,N,11619.63734,E,0.982,,050616,,,A*7A
$GPVTG,,T,,M,0.982,N,1.818,K,A*20
$GPGGA,114710.00,4000.04141,N,11619.63734,E,1,04,6.99,66.8,M,-8.8,M,,*76
$GPGSA,A,3,09,17,03,23,,,,,,,,,8.89,6.99,5.50*00
$GPGSV,3,1,11,02,28,268,21,03,26,046,26,06,68,306,,09,18,120,20*71
$GPGSV,3,2,11,12,22,317,,17,65,099,22,19,77,004,,22,02,041,*70
$GPGSV,3,3,11,23,20,089,22,24,00,275,,28,21,176,*44
$GPGLL,4000.04141,N,11619.63734,E,114710.00,A,A*64
$GPRMC,114711.00,A,4000.04127,N,11619.63738,E,0.885,,050616,,,A*71
$GPVTG,,T,,M,0.885,N,1.640,K,A*25
$GPGGA,114711.00,4000.04127,N,11619.63738,E,1,04,6.99,66.7,M,-8.8,M,,*74
$GPGSA,A,3,09,17,03,23,,,,,,,,,8.89,6.99,5.50*00
$GPGSV,3,1,11,02,28,268,21,03,26,046,26,06,68,306,,09,18,120,21*70
$GPGSV,3,2,11,12,22,317,,17,65,099,22,19,77,004,,22,02,041,*70
$GPGSV,3,3,11,23,20,089,22,24,00,275,,28,21,176,*44
$GPGLL,4000.04127,N,11619.63738,E,114711.00,A,A*69
$GPRMC,114712.00,A,4000.04106,N,11619.63761,E,0.653,,050616,,,A*78
$GPVTG,,T,,M,0.653,N,1.210,K,A*21
$GPGGA,114712.00,4000.04106,N,11619.63761,E,1,04,6.99,66.7,M,-8.8,M,,*78
$GPGSA,A,3,09,17,03,23,,,,,,,,,8.89,6.99,5.50*00
$GPGSV,3,1,11,02,28,268,18,03,26,046,27,06,68,306,,09,18,120,21*7B
$GPGSV,3,2,11,12,22,317,,17,65,099,22,19,77,004,19,22,02,041,*78
$GPGSV,3,3,11,23,20,089,22,24,00,275,,28,21,176,*44
$GPGLL,4000.04106,N,11619.63761,E,114712.00,A,A*65
$GPRMC,114713.00,A,4000.04105,N,11619.63794,E,0.595,,050616,,,A*79
$GPVTG,,T,,M,0.595,N,1.102,K,A*28
$GPGGA,114713.00,4000.04105,N,11619.63794,E,1,04,6.99,66.6,M,-8.8,M,,*71
$GPGSA,A,3,09,17,03,23,,,,,,,,,8.89,6.99,5.50*00
$GPGSV,3,1,11,02,28,268,16,03,26,046,27,06,68,306,,09,18,120,20*74
$GPGSV,3,2,11,12,22,317,,17,65,099,23,19,77,004,17,22,02,041,*77
$GPGSV,3,3,11,23,20,089,23,24,00,275,,28,21,176,*45
$GPGLL,4000.04105,N,11619.63794,E,114713.00,A,A*6D
$GPRMC,114714.00,A,4000.04106,N,11619.63949,E,0.986,,050616,,,A*7D
$GPVTG,,T,,M,0.986,N,1.826,K,A*29
$GPGGA,114714.00,4000.04106,N,11619.63949,E,1,04,6.99,66.6,M,-8.8,M,,*7B
$GPGSA,A,3,09,17,03,23,,,,,,,,,8.89,6.99,5.50*00
$GPGSV,3,1,11,02,28,268,11,03,26,046,27,06,68,306,,09,18,120,20*73
$GPGSV,3,2,11,12,22,317,,17,65,099,23,19,77,004,15,22,02,041,*75
$GPGSV,3,3,11,23,20,089,21,24,00,275,,28,21,176,*47
$GPGLL,4000.04106,N,11619.63949,E,114714.00,A,A*67
$GPRMC,114715.00,A,4000.04155,N,11619.63935,E,1.150,,050616,,,A*73
$GPVTG,,T,,M,1.150,N,2.131,K,A*27
$GPGGA,114715.00,4000.04155,N,11619.63935,E,1,04,6.99,66.6,M,-8.8,M,,*77
$GPGSA,A,3,09,17,03,23,,,,,,,,,8.90,6.99,5.50*08
$GPGSV,3,1,11,02,28,268,12,03,26,046,27,06,68,306,,09,18,120,21*71
$GPGSV,3,2,11,12,22,317,,17,65,099,23,19,77,004,10,22,02,041,*70
$GPGSV,3,3,11,23,20,089,21,24,00,275,,28,21,176,*47
$GPGLL,4000.04155,N,11619.63935,E,114715.00,A,A*6B
$GPRMC,114716.00,A,4000.04144,N,11619.63894,E,1.390,,050616,,,A*74
$GPVTG,,T,,M,1.390,N,2.574,K,A*2C
$GPGGA,114716.00,4000.04144,N,11619.63894,E,1,04,6.99,66.6,M,-8.8,M,,*7E
$GPGSA,A,3,09,17,03,23,,,,,,,,,8.90,6.99,5.50*08
$GPGSV,3,1,11,02,28,268,11,03,26,046,28,06,68,306,,09,18,120,21*7D
$GPGSV,3,2,11,12,22,317,,17,65,099,23,19,77,004,09,22,02,041,*78
$GPGSV,3,3,11,23,20,089,22,24,00,275,,28,21,176,*44
$GPGLL,4000.04144,N,11619.63894,E,114716.00,A,A*62
$GPRMC,114717.00,A,4000.04136,N,11619.63943,E,1.033,,050616,,,A*71
$GPVTG,,T,,M,1.033,N,1.913,K,A*28
$GPGGA,114717.00,4000.04136,N,11619.63943,E,1,04,6.99,66.5,M,-8.8,M,,*72
$GPGSA,A,3,09,17,03,23,,,,,,,,,8.90,6.99,5.51*09
$GPGSV,3,1,11,02,28,268,14,03,25,045,27,06,68,306,,09,18,120,21*77
$GPGSV,3,2,11,12,22,317,,17,65,099,23,19,77,004,08,22,02,041,*79
$GPGSV,3,3,11,23,20,089,23,24,00,275,,28,21,176,*45
$GPGLL,4000.04136,N,11619.63943,E,114717.00,A,A*6D
$GPRMC,114718.00,A,4000.04138,N,11619.63893,E,1.060,,050616,,,A*7A
$GPVTG,,T,,M,1.060,N,1.964,K,A*2E
$GPGGA,114718.00,4000.04138,N,11619.63893,E,1,04,6.99,66.5,M,-8.8,M,,*7F
$GPGSA,A,3,09,17,03,23,,,,,,,,,8.90,6.99,5.51*09
$GPGSV,3,1,11,02,28,268,13,03,25,045,27,06,68,306,,09,18,120,21*70
$GPGSV,3,2,11,12,22,317,,17,65,099,22,19,77,004,08,22,02,041,*78
$GPGSV,3,3,11,23,20,089,21,24,00,275,,28,21,176,*47
$GPGLL,4000.04138,N,11619.63893,E,114718.00,A,A*60
$GPRMC,114719.00,A,4000.04130,N,11619.63794,E,1.451,,050616,,,A*7D
$GPVTG,,T,,M,1.451,N,2.688,K,A*26
$GPGGA,114719.00,4000.04130,N,11619.63794,E,1,04,6.99,66.4,M,-8.8,M,,*7F
$GPGSA,A,3,09,17,03,23,,,,,,,,,8.90,6.99,5.51*09
$GPGSV,3,1,11,02,28,268,,03,25,045,27,06,68,307,,09,18,120,21*73
$GPGSV,3,2,11,12,22,317,,17,65,099,22,19,77,004,09,22,02,041,*79
$GPGSV,3,3,11,23,20,089,20,24,00,275,,28,21,176,*46
$GPGLL,4000.04130,N,11619.63794,E,114719.00,A,A*61
$GPRMC,114720.00,A,4000.04096,N,11619.63759,E,1.273,,050616,,,A*7D
$GPVTG,,T,,M,1.273,N,2.358,K,A*28
$GPGGA,114720.00,4000.04096,N,11619.63759,E,1,04,6.99,66.3,M,-8.8,M,,*7E
$GPGSA,A,3,09,17,03,23,,,,,,,,,8.90,6.99,5.51*09
$GPGSV,3,1,11,02,28,268,,03,25,045,27,06,68,307,,09,18,120,21*73
$GPGSV,3,2,11,12,22,317,,17,65,099,23,19,77,004,18,22,02,041,*78
$GPGSV,3,3,11,23,20,089,20,24,00,275,,28,21,176,*46
$GPGLL,4000.04096,N,11619.63759,E,114720.00,A,A*67
$GPRMC,114721.00,A,4000.04153,N,11619.63910,E,0.445,,050616,,,A*75
$GPVTG,,T,,M,0.445,N,0.824,K,A*28
$GPGGA,114721.00,4000.04153,N,11619.63910,E,1,04,6.99,66.2,M,-8.8,M,,*75
$GPGSA,A,3,09,17,03,23,,,,,,,,,8.90,6.99,5.51*09
$GPGSV,3,1,11,02,28,268,,03,25,045,27,06,68,307,,09,18,120,23*71
$GPGSV,3,2,11,12,22,317,,17,65,099,23,19,77,004,16,22,02,041,*76
$GPGSV,3,3,11,23,20,089,21,24,00,275,,28,21,176,*47
$GPGLL,4000.04153,N,11619.63910,E,114721.00,A,A*6D
$GPRMC,114722.00,A,4000.04180,N,11619.63820,E,0.639,,050616,,,A*73
$GPVTG,,T,,M,0.639,N,1.183,K,A*24
$GPGGA,114722.00,4000.04180,N,11619.63820,E,1,04,6.99,66.2,M,-8.8,M,,*7A
$GPGSA,A,3,09,17,03,23,,,,,,,,,8.90,6.99,5.51*09
$GPGSV,3,1,11,02,28,268,21,03,25,045,27,06,68,307,,09,18,120,23*72
$GPGSV,3,2,11,12,22,317,,17,65,099,24,19,77,004,14,22,02,041,*73
$GPGSV,3,3,11,23,20,089,22,24,00,275,,28,21,176,*44
$GPGLL,4000.04180,N,11619.63820,E,114722.00,A,A*62
$GPRMC,114723.00,A,4000.04211,N,11619.63790,E,0.911,,050616,,,A*78
$GPVTG,,T,,M,0.911,N,1.688,K,A*2D
$GPGGA,114723.00,4000.04211,N,11619.63790,E,1,04,6.99,66.0,M,-8.8,M,,*76
$GPGSA,A,3,09,17,03,23,,,,,,,,,8.90,6.99,5.51*09
$GPGSV,3,1,11,02,28,268,22,03,25,045,27,06,68,307,20,09,18,120,23*73
$GPGSV,3,2,11,12,22,317,,17,65,099,24,19,77,004,13,22,02,041,*74
$GPGSV,3,3,11,23,20,089,21,24,00,275,,28,21,176,*47
$GPGLL,4000.04211,N,11619.63790,E,114723.00,A,A*6C
$GPRMC,114724.00,A,4000.04207,N,11619.63768,E,1.478,,050616,,,A*7C
$GPVTG,,T,,M,1.478,N,2.737,K,A*28
$GPGGA,114724.00,4000.04207,N,11619.63768,E,1,04,6.99,66.0,M,-8.8,M,,*71
$GPGSA,A,3,09,17,03,23,,,,,,,,,8.90,6.99,5.51*09
$GPGSV,3,1,11,02,28,268,21,03,25,045,27,06,68,307,18,09,18,120,23*7B
$GPGSV,3,2,11,12,22,317,,17,65,099,24,19,77,004,,22,02,041,*76
$GPGSV,3,3,11,23,20,089,21,24,00,275,,28,21,176,*47
$GPGLL,4000.04207,N,11619.63768,E,114724.00,A,A*6B
$GPRMC,114725.00,A,4000.04205,N,11619.63618,E,2.111,,050616,,,A*70
$GPVTG,,T,,M,2.111,N,3.910,K,A*2B
$GPGGA,114725.00,4000.04205,N,11619.63618,E,1,04,6.99,65.8,M,-8.8,M,,*7F
$GPGSA,A,3,09,17,03,23,,,,,,,,,8.90,6.99,5.51*09
$GPGSV,3,1,11,02,28,268,19,03,25,045,27,06,68,307,16,09,18,120,22*7F
$GPGSV,3,2,11,12,22,317,,17,65,099,24,19,77,004,,22,02,041,*76
$GPGSV,3,3,11,23,20,089,20,24,00,275,,28,21,176,*46
$GPGLL,4000.04205,N,11619.63618,E,114725.00,A,A*6E
$GPRMC,114726.00,A,4000.04197,N,11619.63655,E,1.653,,050616,,,A*70
$GPVTG,,T,,M,1.653,N,3.062,K,A*25
$GPGGA,114726.00,4000.04197,N,11619.63655,E,1,04,6.99,65.7,M,-8.8,M,,*72
$GPGSA,A,3,09,17,03,23,,,,,,,,,8.90,6.99,5.51*09
$GPGSV,3,1,11,02,28,268,15,03,25,045,27,06,68,307,13,09,18,120,21*75
$GPGSV,3,2,11,12,22,317,,17,65,099,25,19,77,004,15,22,02,041,*73
$GPGSV,3,3,11,23,20,089,20,24,00,275,,28,21,176,*46
$GPGLL,4000.04197,N,11619.63655,E,114726.00,A,A*6C
$GPRMC,114727.00,A,4000.04204,N,11619.63647,E,1.698,,050616,,,A*7C
$GPVTG,,T,,M,1.698,N,3.145,K,A*26
$GPGGA,114727.00,4000.04204,N,11619.63647,E,1,04,6.99,65.6,M,-8.8,M,,*78
$GPGSA,A,3,09,17,03,23,,,,,,,,,8.90,6.99,5.51*09
$GPGSV,3,1,11,02,28,268,13,03,25,045,27,06,68,307,11,09,18,120,20*70
$GPGSV,3,2,11,12,22,317,,17,65,099,25,19,77,004,,22,02,041,*77
$GPGSV,3,3,11,23,20,089,19,24,00,275,,28,21,176,*4C
$GPGLL,4000.04204,N,11619.63647,E,114727.00,A,A*67
$GPRMC,114728.00,A,4000.04196,N,11619.63717,E,2.061,,050616,,,A*7C
$GPVTG,,T,,M,2.061,N,3.817,K,A*2B
$GPGGA,114728.00,4000.04196,N,11619.63717,E,1,03,4.14,66.5,M,-8.8,M,,*7B
$GPGSA,A,2,09,17,03,,,,,,,,,,4.26,4.14,1.00*0F
$GPGSV,3,1,11,02,28,268,13,03,25,045,28,06,68,307,09,09,18,120,20*76
$GPGSV,3,2,11,12,22,317,,17,65,099,25,19,77,004,16,22,02,041,*70
$GPGSV,3,3,11,23,20,089,23,24,00,275,,28,21,176,*45
$GPGLL,4000.04196,N,11619.63717,E,114728.00,A,A*64
$GPRMC,114729.00,A,4000.04200,N,11619.63744,E,1.768,,050616,,,A*7A
$GPVTG,,T,,M,1.768,N,3.274,K,A*29
$GPGGA,114729.00,4000.04200,N,11619.63744,E,1,03,4.14,66.6,M,-8.8,M,,*73
$GPGSA,A,2,09,17,03,,,,,,,,,,4.26,4.14,1.00*0F
$GPGSV,3,1,11,02,28,268,,03,25,045,27,06,68,307,09,09,18,120,20*7B
$GPGSV,3,2,11,12,22,317,,17,65,099,24,19,77,004,12,22,02,041,*75
$GPGSV,3,3,11,23,20,089,21,24,00,275,,28,21,176,*47
$GPGLL,4000.04200,N,11619.63744,E,114729.00,A,A*6F
$GPRMC,114730.00,A,4000.04233,N,11619.63821,E,1.175,,050616,,,A*74
$GPVTG,,T,,M,1.175,N,2.176,K,A*23
$GPGGA,114730.00,4000.04233,N,11619.63821,E,1,03,4.15,66.7,M,-8.8,M,,*77
$GPGSA,A,2,09,17,03,,,,,,,,,,4.26,4.15,1.00*0E
$GPGSV,3,1,11,02,28,268,,03,25,045,27,06,68,307,08,09,18,120,19*70
$GPGSV,3,2,11,12,22,317,,17,65,100,24,19,77,004,08,22,02,041,*7F
$GPGSV,3,3,11,23,20,089,19,24,00,275,,28,21,176,*4C
$GPGLL,4000.04233,N,11619.63821,E,114730.00,A,A*6B
$GPRMC,114731.00,A,4000.04216,N,11619.63871,E,0.740,,050616,,,A*76
$GPVTG,,T,,M,0.740,N,1.370,K,A*25
$GPGGA,114731.00,4000.04216,N,11619.63871,E,1,03,4.15,66.7,M,-8.8,M,,*74
$GPGSA,A,2,09,17,03,,,,,,,,,,4.26,4.15,1.00*0E
$GPGSV,3,1,11,02,28,268,,03,25,045,27,06,68,307,08,09,18,120,19*70
$GPGSV,3,2,11,12,22,317,,17,65,100,24,19,77,004,08,22,02,041,*7F
$GPGSV,3,3,11,23,20,089,19,24,00,275,,28,21,176,*4C
$GPGLL,4000.04216,N,11619.63871,E,114731.00,A,A*68
$GPRMC,114732.00,A,4000.04262,N,11619.63747,E,1.606,,050616,,,A*7E
$GPVTG,,T,,M,1.606,N,2.974,K,A*2A
$GPGGA,114732.00,4000.04262,N,11619.63747,E,1,04,6.99,66.7,M,-8.8,M,,*7F
$GPGSA,A,3,09,17,03,23,,,,,,,,,8.90,6.99,5.51*09
$GPGSV,3,1,11,02,28,268,,03,25,045,27,06,68,307,,09,18,120,19*78
$GPGSV,3,2,11,12,22,317,,17,65,100,24,19,78,005,08,22,02,041,*71
$GPGSV,3,3,11,23,20,089,18,24,00,275,,28,21,176,*4D
$GPGLL,4000.04262,N,11619.63747,E,114732.00,A,A*62
$GPRMC,114733.00,A,4000.04284,N,11619.63767,E,1.708,,050616,,,A*7A
$GPVTG,,T,,M,1.708,N,3.163,K,A*2A
$GPGGA,114733.00,4000.04284,N,11619.63767,E,1,04,6.99,66.8,M,-8.8,M,,*7B
$GPGSA,A,3,09,17,03,23,,,,,,,,,8.90,6.99,5.51*09
$GPGSV,3,1,11,02,28,268,,03,25,045,27,06,68,307,,09,18,120,18*79
$GPGSV,3,2,11,12,22,317,,17,65,100,23,19,78,005,08,22,02,041,*76
$GPGSV,3,3,11,23,20,089,18,24,00,275,,28,21,176,*4D
$GPGLL,4000.04284,N,11619.63767,E,114733.00,A,A*69
$GPRMC,114734.00,A,4000.04268,N,11619.63952,E,1.025,,050616,,,A*7F
$GPVTG,,T,,M,1.025,N,1.899,K,A*2C
$GPGGA,114734.00,4000.04268,N,11619.63952,E,1,04,6.99,66.8,M,-8.8,M,,*76
$GPGSA,A,3,09,17,03,23,,,,,,,,,8.90,6.99,5.51*09
$GPGSV,3,1,11,02,28,268,,03,25,045,27,06,68,307,,09,18,120,17*76
$GPGSV,3,2,11,12,22,317,,17,65,100,23,19,78,005,08,22,02,041,*76
$GPGSV,3,3,11,23,20,089,17,24,00,275,,28,21,176,*42
$GPGLL,4000.04268,N,11619.63952,E,114734.00,A,A*64
$GPRMC,114735.00,A,4000.04286,N,11619.63824,E,1.478,,050616,,,A*72
$GPVTG,,T,,M,1.478,N,2.738,K,A*27
$GPGGA,114735.00,4000.04286,N,11619.63824,E,1,04,6.99,66.8,M,-8.8,M,,*77
$GPGSA,A,3,09,17,03,23,,,,,,,,,8.90,6.99,5.51*09
$GPGSV,3,1,11,02,28,268,,03,25,045,28,06,68,307,,09,18,120,17*79
$GPGSV,3,2,11,12,22,317,,17,65,100,23,19,78,005,08,22,02,041,*76
$GPGSV,3,3,11,23,20,089,16,24,00,275,,28,21,176,*43
$GPGLL,4000.04286,N,11619.63824,E,114735.00,A,A*65
$GPRMC,114736.00,A,4000.04295,N,11619.63958,E,1.260,,050616,,,A*76
$GPVTG,,T,,M,1.260,N,2.333,K,A*27
$GPGGA,114736.00,4000.04295,N,11619.63958,E,1,04,6.99,66.9,M,-8.8,M,,*7D
$GPGSA,A,3,09,17,03,23,,,,,,,,,8.90,6.99,5.51*09
$GPGSV,3,1,11,02,28,268,,03,25,045,27,06,68,307,,09,18,120,17*76
$GPGSV,3,2,11,12,22,317,,17,65,100,22,19,78,005,08,22,02,041,*77
$GPGSV,3,3,11,23,20,089,16,24,00,275,,28,21,176,*43
$GPGLL,4000.04295,N,11619.63958,E,114736.00,A,A*6E
$GPRMC,114737.00,A,4000.04352,N,11619.63896,E,2.076,,050616,,,A*78
$GPVTG,,T,,M,2.076,N,3.844,K,A*2B
$GPGGA,114737.00,4000.04352,N,11619.63896,E,1,04,6.99,66.9,M,-8.8,M,,*75
$GPGSA,A,3,09,17,03,23,,,,,,,,,8.90,6.99,5.51*09
$GPGSV,3,1,11,02,28,268,,03,25,045,27,06,68,307,,09,18,120,18*79
$GPGSV,3,2,11,12,22,317,,17,65,100,22,19,78,005,08,22,02,041,*77
$GPGSV,3,3,11,23,20,089,16,24,00,274,,28,21,176,*42
$GPGLL,4000.04352,N,11619.63896,E,114737.00,A,A*66
$GPRMC,114738.00,A,4000.04382,N,11619.63939,E,2.120,,050616,,,A*7C
$GPVTG,,T,,M,2.120,N,3.926,K,A*2C
$GPGGA,114738.00,4000.04382,N,11619.63939,E,1,04,6.99,66.9,M,-8.8,M,,*73
$GPGSA,A,3,09,17,03,23,,,,,,,,,8.90,6.99,5.51*09
$GPGSV,3,1,11,02,28,268,,03,25,045,27,06,68,307,,09,18,120,18*79
$GPGSV,3,2,11,12,22,317,,17,65,100,23,19,78,005,08,22,02,041,14*73
$GPGSV,3,3,11,23,20,089,16,24,00,274,,28,21,176,*42
$GPGLL,4000.04382,N,11619.63939,E,114738.00,A,A*60
$GPRMC,114739.00,A,4000.04379,N,11619.63896,E,1.859,,050616,,,A*79
$GPVTG,,T,,M,1.859,N,3.443,K,A*26
$GPGGA,114739.00,4000.04379,N,11619.63896,E,1,04,6.99,66.8,M,-8.8,M,,*73
$GPGSA,A,3,09,17,03,23,,,,,,,,,8.90,6.99,5.51*09
$GPGSV,3,1,11,02,28,268,,03,25,045,27,06,68,307,,09,18,120,17*76
$GPGSV,3,2,11,12,22,317,,17,65,100,23,19,78,005,08,22,02,041,13*74
$GPGSV,3,3,11,23,20,089,16,24,00,274,20,28,21,176,*40
$GPGLL,4000.04379,N,11619.63896,E,114739.00,A,A*61
$GPRMC,114740.00,A,4000.04380,N,11619.63939,E,1.603,,050616,,,A*74
$GPVTG,,T,,M,1.603,N,2.968,K,A*22
